# ax ay az T gx gy gz throttle roll pitch yaw
-0.004578195512294769, -0.0019533634185791016, 0.5029910802841187, 0.0, -0.09160305559635162, 1.2137404680252075, 1.0687023401260376, 1008, 1504, 1500, 1496
-0.008484922349452972, -0.0068367719650268555, 0.49908435344696045, 0.0, -0.20610687136650085, 1.2824426889419556, 0.9083969593048096, 1008, 1504, 1500, 1496
-0.0036015138030052185, -0.005127578973770142, 0.5090953707695007, 0.0, 0.07633587718009949, 1.2061069011688232, 1.0992366075515747, 1008, 1504, 1500, 1496
-0.005310706794261932, -0.004150897264480591, 0.5059211254119873, 0.0, -0.2748091518878937, 1.3511450290679932, 1.1526718139648438, 992, 1504, 1500, 1500
0.00079355388879776, -0.005615919828414917, 0.508851170539856, 0.0, -0.3206106722354889, 1.038167953491211, 1.2748091220855713, 992, 1504, 1500, 1500
0.0012818947434425354, 0.0029300451278686523, 0.5071420073509216, 0.0, -0.22900763154029846, 1.160305380821228, 1.267175555229187, 992, 1504, 1500, 1500
-0.004578195512294769, -0.0009766817092895508, 0.5166646242141724, 0.0, -0.13740457594394684, 1.2900763750076294, 1.0, 992, 1504, 1500, 1500
-0.00018312782049179077, -0.008057624101638794, 0.504456102848053, 0.0, -0.09923664480447769, 1.412213683128357, 1.106870174407959, 992, 1504, 1500, 1500
-0.0036015138030052185, -0.007325112819671631, 0.5115370750427246, 0.0, -0.13740457594394684, 1.3969465494155884, 1.1832060813903809, 992, 1504, 1500, 1500
-0.003357343375682831, -0.0068367719650268555, 0.508607029914856, 0.0, -0.10687022656202316, 1.1526718139648438, 1.2213740348815918, 992, 1504, 1500, 1500
-0.003845684230327606, -0.007813453674316406, 0.5134904384613037, 0.0, -0.15267175436019897, 1.5190839767456055, 1.2748091220855713, 992, 1504, 1500, 1496
-0.011414967477321625, -0.005615919828414917, 0.5051886439323425, 0.0, -0.030534351244568825, 1.4198473691940308, 1.0076335668563843, 996, 1504, 1500, 1496
-0.007264070212841034, -0.007325112819671631, 0.5132462382316589, 0.0, -0.19083969295024872, 1.4809160232543945, 1.1145038604736328, 996, 1504, 1500, 1496
-0.0026248320937156677, -0.004883408546447754, 0.519350528717041, 0.0, -0.04580152779817581, 1.267175555229187, 1.0, 996, 1504, 1500, 1496
-0.0014039799571037292, -0.0075692832469940186, 0.5125137567520142, 0.0, -0.1221374049782753, 1.2977099418640137, 1.038167953491211, 996, 1504, 1500, 1492
-0.007264070212841034, -0.0012208521366119385, 0.514955461025238, 0.0, -0.06106870248913765, 1.305343508720398, 1.2213740348815918, 996, 1504, 1500, 1492
-0.004089854657649994, -0.004150897264480591, 0.5093395113945007, 0.0, -0.09923664480447769, 1.3129770755767822, 1.1145038604736328, 996, 1504, 1500, 1492
-0.00042729824781417847, -0.009766817092895508, 0.504211962223053, 0.0, -0.18320611119270325, 1.2824426889419556, 1.267175555229187, 996, 1504, 1500, 1492
-0.009217433631420135, -0.0004883408546447754, 0.5064094662666321, 0.0, 0.09160305559635162, 1.6259541511535645, 1.0916030406951904, 992, 1504, 1500, 1500
0.0020144060254096985, -0.005615919828414917, 0.5108045339584351, 0.0, -0.38167938590049744, 1.4580153226852417, 1.2137404680252075, 992, 1504, 1500, 1500
-0.0014039799571037292, -0.0026858747005462646, 0.5120254158973694, 0.0, -0.04580152779817581, 1.0916030406951904, 1.305343508720398, 992, 1504, 1500, 1500
-0.003357343375682831, -0.0036625564098358154, 0.514955461025238, 0.0, -0.05343511328101158, 1.2977099418640137, 0.9923664331436157, 992, 1504, 1500, 1512
-0.0018923208117485046, -0.0012208521366119385, 0.5203272104263306, 0.0, -0.32824426889419556, 1.2442748546600342, 1.122137427330017, 992, 1504, 1500, 1512
-0.0060432180762290955, -0.00634843111038208, 0.5215480327606201, 0.0, -0.2977099120616913, 1.3282443284988403, 0.9923664331436157, 992, 1504, 1500, 1512
-0.00238066166639328, -0.005615919828414917, 0.5095837116241455, 0.0, -0.25954198837280273, 1.4045801162719727, 0.9541984796524048, 992, 1504, 1500, 1512
0.004700280725955963, -0.0026858747005462646, 0.5120254158973694, 0.0, -0.09160305559635162, 1.3129770755767822, 0.847328245639801, 992, 1504, 1496, 1496
-0.0011598095297813416, -0.00317421555519104, 0.4985960125923157, 0.0, -0.038167938590049744, 1.3129770755767822, 1.1908396482467651, 992, 1504, 1496, 1496
-0.006531558930873871, -0.005860090255737305, 0.5176413059234619, 0.0, -0.1679389327764511, 1.3587785959243774, 1.2366411685943604, 992, 1504, 1496, 1496
-0.007264070212841034, -0.007813453674316406, 0.5142229199409485, 0.0, -0.12977099418640137, 1.305343508720398, 1.2137404680252075, 992, 1504, 1496, 1496
-0.004089854657649994, -0.008057624101638794, 0.5064094662666321, 0.0, -0.2671755850315094, 1.305343508720398, 1.2366411685943604, 992, 1504, 1500, 1492
-0.004334025084972382, -0.004150897264480591, 0.5056769847869873, 0.0, -0.10687022656202316, 1.4351145029067993, 1.0610686540603638, 992, 1504, 1500, 1492
-0.007264070212841034, 0.0002441704273223877, 0.4976193308830261, 0.0, -0.25954198837280273, 1.3511450290679932, 0.9923664331436157, 992, 1504, 1500, 1492
-0.0009156391024589539, -0.0021975338459014893, 0.508607029914856, 0.0, -0.06870228797197342, 1.4885495901107788, 1.2748091220855713, 992, 1504, 1500, 1492
-0.001648150384426117, -0.007813453674316406, 0.5120254158973694, 0.0, -0.06106870248913765, 1.2213740348815918, 1.1908396482467651, 996, 1504, 1500, 1492
-0.004578195512294769, 0.0012208521366119385, 0.5154438018798828, 0.0, 0.06870228797197342, 1.3587785959243774, 1.0534350872039795, 996, 1504, 1500, 1492
-0.00018312782049179077, -0.005371749401092529, 0.5081186890602112, 0.0, -0.10687022656202316, 1.2137404680252075, 0.9770992398262024, 996, 1504, 1500, 1492
-0.008973263204097748, -0.0043950676918029785, 0.5090953707695007, 0.0, -0.2977099120616913, 1.2977099418640137, 1.0992366075515747, 996, 1504, 1500, 1496
-0.005310706794261932, 0.0002441704273223877, 0.5071420073509216, 0.0, -0.18320611119270325, 1.5190839767456055, 1.0839694738388062, 992, 1504, 1500, 1496
-0.0060432180762290955, -0.00317421555519104, 0.504211962223053, 0.0, -0.19083969295024872, 1.2900763750076294, 1.2366411685943604, 992, 1504, 1500, 1496
0.0039677694439888, -0.003906726837158203, 0.5059211254119873, 0.0, 0.015267175622284412, 1.14503812789917, 1.2519084215164185, 992, 1504, 1500, 1496
-0.00238066166639328, -0.0034183859825134277, 0.5132462382316589, 0.0, -0.1679389327764511, 1.0610686540603638, 1.389312982559204, 992, 1516, 1504, 1492
-0.0006714686751365662, -0.005860090255737305, 0.5017702579498291, 0.0, -0.2977099120616913, 1.1832060813903809, 1.2442748546600342, 992, 1516, 1504, 1492
6.104260683059692e-05, -0.00854596495628357, 0.5120254158973694, 0.0, -0.21374045312404633, 1.1755725145339966, 1.2824426889419556, 992, 1516, 1504, 1492
0.001526065170764923, -0.007080942392349243, 0.5166646242141724, 0.0, -0.1679389327764511, 1.1679389476776123, 1.1755725145339966, 992, 1516, 1504, 1492
-0.0060432180762290955, -0.007325112819671631, 0.5156879425048828, 0.0, -0.06106870248913765, 1.2977099418640137, 1.1679389476776123, 996, 1504, 1500, 1492
-0.0021364912390708923, -0.00854596495628357, 0.5108045339584351, 0.0, -0.09160305559635162, 1.2900763750076294, 1.0916030406951904, 996, 1504, 1500, 1492
0.0020144060254096985, -0.003906726837158203, 0.5154438018798828, 0.0, -0.04580152779817581, 1.496183156967163, 0.9465649127960205, 996, 1504, 1500, 1492
0.00079355388879776, -0.006592601537704468, 0.5034794211387634, 0.0, -0.18320611119270325, 1.2061069011688232, 1.2442748546600342, 996, 1504, 1516, 1496
-0.007019899785518646, -0.0043950676918029785, 0.5147112607955933, 0.0, -0.3664122223854065, 1.267175555229187, 1.1679389476776123, 976, 1504, 1516, 1496
-0.006287388503551483, -0.005127578973770142, 0.5056769847869873, 0.0, -0.038167938590049744, 1.4580153226852417, 1.229007601737976, 976, 1504, 1516, 1496
0.001526065170764923, -0.0075692832469940186, 0.5098278522491455, 0.0, -0.16030533611774445, 1.427480936050415, 1.1297709941864014, 976, 1504, 1516, 1496
-0.003113172948360443, -0.0036625564098358154, 0.5232572555541992, 0.0, -0.17557251453399658, 1.3511450290679932, 1.2366411685943604, 992, 1504, 1504, 1492
-0.004578195512294769, -0.005615919828414917, 0.5066536664962769, 0.0, -0.08396946638822556, 1.4503816366195679, 1.160305380821228, 992, 1504, 1504, 1492
-0.007508240640163422, -0.005371749401092529, 0.5139787793159485, 0.0, -0.290076345205307, 1.229007601737976, 1.1145038604736328, 992, 1504, 1504, 1492
-0.007264070212841034, -0.0012208521366119385, 0.5064094662666321, 0.0, -0.1450381726026535, 1.0534350872039795, 1.267175555229187, 992, 1504, 1504, 1492
-0.0014039799571037292, -0.0012208521366119385, 0.5105603933334351, 0.0, -0.3664122223854065, 1.3816794157028198, 1.2137404680252075, 996, 1504, 1500, 1492
-0.005066536366939545, 0.0014650225639343262, 0.504211962223053, 0.0, -0.06870228797197342, 1.1908396482467651, 1.2824426889419556, 996, 1504, 1500, 1492
-0.003357343375682831, -0.0009766817092895508, 0.5137345790863037, 0.0, -0.15267175436019897, 1.3282443284988403, 0.9847328066825867, 996, 1504, 1500, 1492
-0.007996581494808197, -0.0019533634185791016, 0.5098278522491455, 0.0, -0.290076345205307, 1.3206106424331665, 1.0763359069824219, 996, 1504, 1504, 1492
-0.001648150384426117, -0.002441704273223877, 0.515199601650238, 0.0, -0.25954198837280273, 1.305343508720398, 1.198473334312439, 992, 1504, 1504, 1492
0.00079355388879776, -0.005615919828414917, 0.5047003030776978, 0.0, -0.1679389327764511, 1.4198473691940308, 1.14503812789917, 992, 1504, 1504, 1492
-0.004089854657649994, -0.00634843111038208, 0.5081186890602112, 0.0, -0.2977099120616913, 1.3816794157028198, 0.9618320465087891, 992, 1504, 1504, 1492
0.0017702355980873108, -0.006592601537704468, 0.5076303482055664, 0.0, -0.19847328960895538, 1.3129770755767822, 1.1374045610427856, 980, 1504, 1512, 1496
-0.006531558930873871, -0.004639238119125366, 0.5130020976066589, 0.0, -0.32824426889419556, 1.3969465494155884, 1.5267175436019897, 980, 1504, 1512, 1496
-0.0026248320937156677, -0.0019533634185791016, 0.5081186890602112, 0.0, -0.05343511328101158, 1.2824426889419556, 1.2061069011688232, 980, 1504, 1512, 1496
-0.007264070212841034, -0.006104260683059692, 0.508851170539856, 0.0, -0.16030533611774445, 1.5114504098892212, 1.2824426889419556, 980, 1504, 1512, 1496
-0.00238066166639328, -0.004883408546447754, 0.5095837116241455, 0.0, -0.10687022656202316, 1.4503816366195679, 1.1832060813903809, 992, 1504, 1500, 1496
0.002502746880054474, -0.003906726837158203, 0.5125137567520142, 0.0, -0.10687022656202316, 1.5496183633804321, 1.2213740348815918, 992, 1504, 1500, 1496
6.104260683059692e-05, -0.0036625564098358154, 0.5100720524787903, 0.0, -0.1221374049782753, 0.8931297659873962, 1.160305380821228, 992, 1504, 1500, 1496
-0.003845684230327606, -0.0043950676918029785, 0.5037236213684082, 0.0, -0.19083969295024872, 1.4198473691940308, 1.198473334312439, 992, 1504, 1500, 1496
-0.0014039799571037292, -0.003906726837158203, 0.5071420073509216, 0.0, -0.11450381577014923, 1.3358778953552246, 1.1526718139648438, 992, 1504, 1500, 1496
-0.0028690025210380554, -0.0002441704273223877, 0.5039677619934082, 0.0, -0.2442748099565506, 1.1832060813903809, 1.198473334312439, 992, 1504, 1500, 1496
-0.00018312782049179077, -0.00317421555519104, 0.5068978071212769, 0.0, -0.23664122819900513, 1.3358778953552246, 1.2977099418640137, 992, 1504, 1500, 1496
-0.0036015138030052185, -0.009278476238250732, 0.5078744888305664, 0.0, -0.25190839171409607, 1.3587785959243774, 1.0687023401260376, 996, 1504, 1500, 1492
-0.008484922349452972, -0.0029300451278686523, 0.5059211254119873, 0.0, -0.09160305559635162, 1.267175555229187, 1.160305380821228, 996, 1508, 1500, 1492
-0.0006714686751365662, -0.00317421555519104, 0.5093395113945007, 0.0, -0.09923664480447769, 1.4351145029067993, 1.229007601737976, 996, 1508, 1500, 1492
-0.003113172948360443, -0.005127578973770142, 0.5183738470077515, 0.0, -0.25190839171409607, 1.5114504098892212, 1.1755725145339966, 996, 1508, 1500, 1492
-0.00238066166639328, -0.0043950676918029785, 0.5130020976066589, 0.0, -0.22900763154029846, 1.389312982559204, 1.2442748546600342, 996, 1516, 1500, 1492
-0.0009156391024589539, -0.004883408546447754, 0.5142229199409485, 0.0, -0.18320611119270325, 1.3664121627807617, 0.9618320465087891, 996, 1516, 1500, 1492
-0.0006714686751365662, -0.007325112819671631, 0.5005493760108948, 0.0, -0.23664122819900513, 1.3206106424331665, 1.0229008197784424, 996, 1516, 1500, 1492
-0.006531558930873871, -0.0075692832469940186, 0.4995726943016052, 0.0, -0.06106870248913765, 1.4351145029067993, 0.9847328066825867, 996, 1516, 1500, 1492
-0.004334025084972382, -0.007080942392349243, 0.5161762833595276, 0.0, -0.19847328960895538, 1.4580153226852417, 0.8625954389572144, 996, 1504, 1500, 1492
-0.0014039799571037292, -0.005371749401092529, 0.5139787793159485, 0.0, -0.19083969295024872, 1.3282443284988403, 0.9770992398262024, 996, 1504, 1500, 1492
-0.003845684230327606, -0.005371749401092529, 0.5103161931037903, 0.0, -0.3206106722354889, 1.412213683128357, 1.0152671337127686, 996, 1504, 1500, 1492
0.0003052130341529846, -0.0017091929912567139, 0.5037236213684082, 0.0, -0.17557251453399658, 1.5114504098892212, 1.1145038604736328, 996, 1504, 1500, 1492
-0.003113172948360443, -0.0075692832469940186, 0.5061653256416321, 0.0, -0.007633587811142206, 1.2366411685943604, 1.3129770755767822, 996, 1504, 1500, 1492
-0.0009156391024589539, -0.007813453674316406, 0.5130020976066589, 0.0, -0.2671755850315094, 1.4351145029067993, 1.2366411685943604, 996, 1504, 1500, 1492
-0.0014039799571037292, -0.007813453674316406, 0.5127578973770142, 0.0, -0.13740457594394684, 1.1145038604736328, 1.4351145029067993, 996, 1504, 1500, 1492
-0.0011598095297813416, -0.005127578973770142, 0.5110487341880798, 0.0, -0.19847328960895538, 1.2900763750076294, 1.2824426889419556, 992, 1504, 1500, 1492
6.104260683059692e-05, -0.0036625564098358154, 0.515199601650238, 0.0, -0.35877862572669983, 1.1908396482467651, 1.1526718139648438, 992, 1504, 1500, 1492
-0.006287388503551483, -0.010987669229507446, 0.5122695565223694, 0.0, -0.40458014607429504, 1.122137427330017, 1.1526718139648438, 992, 1504, 1500, 1492
-0.003845684230327606, -0.00952264666557312, 0.5127578973770142, 0.0, -0.1450381726026535, 1.198473334312439, 1.1297709941864014, 992, 1504, 1500, 1492
0.003235258162021637, -0.0036625564098358154, 0.5134904384613037, 0.0, -0.07633587718009949, 1.229007601737976, 1.0839694738388062, 996, 1504, 1500, 1492
-0.0011598095297813416, -0.00952264666557312, 0.5010377168655396, 0.0, 0.12977099418640137, 1.0992366075515747, 1.2366411685943604, 996, 1504, 1500, 1492
0.0029910877346992493, -0.0043950676918029785, 0.49713099002838135, 0.0, 0.04580152779817581, 1.267175555229187, 0.9541984796524048, 996, 1504, 1500, 1492
0.0005493834614753723, -0.0002441704273223877, 0.5093395113945007, 0.0, -0.18320611119270325, 1.4732824563980103, 1.1297709941864014, 992, 1504, 1500, 1492
0.0005493834614753723, 0.0021975338459014893, 0.5139787793159485, 0.0, -0.17557251453399658, 1.3740458488464355, 1.1374045610427856, 992, 1504, 1500, 1492
-0.0028690025210380554, -0.007080942392349243, 0.5073861479759216, 0.0, -0.10687022656202316, 1.1145038604736328, 1.2748091220855713, 992, 1504, 1500, 1492
-0.016542546451091766, -0.0034183859825134277, 0.5054327845573425, 0.0, -0.30534350872039795, 1.3816794157028198, 1.1297709941864014, 992, 1504, 1500, 1492
-0.004089854657649994, -0.010255157947540283, 0.5068978071212769, 0.0, -0.25954198837280273, 1.5114504098892212, 1.3282443284988403, 992, 1504, 1500, 1492
-0.003113172948360443, -0.0075692832469940186, 0.5100720524787903, 0.0, -0.21374045312404633, 1.412213683128357, 1.267175555229187, 992, 1504, 1500, 1492
-0.0026248320937156677, -0.009766817092895508, 0.5061653256416321, 0.0, -0.1450381726026535, 1.3511450290679932, 1.0534350872039795, 992, 1504, 1500, 1492
-0.005799047648906708, -0.005371749401092529, 0.5156879425048828, 0.0, -0.28244274854660034, 1.2824426889419556, 1.267175555229187, 992, 1504, 1500, 1492
-0.004334025084972382, -0.0012208521366119385, 0.5090953707695007, 0.0, -0.39694657921791077, 1.305343508720398, 1.305343508720398, 992, 1512, 1500, 1492
0.0020144060254096985, -0.0029300451278686523, 0.5166646242141724, 0.0, -0.20610687136650085, 1.1832060813903809, 1.1526718139648438, 992, 1512, 1500, 1492
-0.003357343375682831, 0.0029300451278686523, 0.5093395113945007, 0.0, -0.13740457594394684, 1.465648889541626, 1.0076335668563843, 992, 1512, 1500, 1492
-0.007264070212841034, -0.00854596495628357, 0.50006103515625, 0.0, -0.15267175436019897, 1.4580153226852417, 1.038167953491211, 992, 1512, 1500, 1492
0.0003052130341529846, -0.005615919828414917, 0.5154438018798828, 0.0, -0.32824426889419556, 1.3816794157028198, 0.9923664331436157, 992, 1508, 1500, 1492
-0.0028690025210380554, -0.006104260683059692, 0.5166646242141724, 0.0, -0.28244274854660034, 1.229007601737976, 1.106870174407959, 992, 1508, 1500, 1492
-0.008484922349452972, -0.005371749401092529, 0.5100720524787903, 0.0, -0.030534351244568825, 1.122137427330017, 1.2137404680252075, 992, 1508, 1500, 1492
-0.004089854657649994, -0.009278476238250732, 0.5078744888305664, 0.0, -0.16030533611774445, 1.3969465494155884, 1.1145038604736328, 992, 1504, 1500, 1496
-0.004334025084972382, -0.007080942392349243, 0.5059211254119873, 0.0, -0.20610687136650085, 1.6564885377883911, 1.0305343866348267, 992, 1504, 1500, 1496
-0.0011598095297813416, 0.0029300451278686523, 0.5112928748130798, 0.0, -0.3664122223854065, 1.2366411685943604, 1.160305380821228, 992, 1504, 1500, 1496
-0.0018923208117485046, -0.0036625564098358154, 0.5120254158973694, 0.0, -0.20610687136650085, 1.2442748546600342, 1.412213683128357, 992, 1504, 1500, 1492
-0.00042729824781417847, -0.0019533634185791016, 0.5064094662666321, 0.0, -0.007633587811142206, 1.14503812789917, 1.1832060813903809, 992, 1512, 1504, 1492
-0.0014039799571037292, -0.0043950676918029785, 0.5073861479759216, 0.0, -0.17557251453399658, 1.305343508720398, 1.1297709941864014, 992, 1512, 1504, 1492
0.003235258162021637, 0.0002441704273223877, 0.5125137567520142, 0.0, -0.23664122819900513, 1.3664121627807617, 1.0, 992, 1512, 1504, 1492
-0.006531558930873871, -0.0036625564098358154, 0.5090953707695007, 0.0, -0.12977099418640137, 1.3740458488464355, 1.1145038604736328, 996, 1512, 1504, 1492
-0.003113172948360443, -0.00854596495628357, 0.515199601650238, 0.0, -0.221374049782753, 1.4427480697631836, 1.0992366075515747, 996, 1500, 1504, 1492
0.0034794285893440247, -0.005860090255737305, 0.5015260577201843, 0.0, -0.22900763154029846, 1.2213740348815918, 1.0, 996, 1500, 1504, 1492
-0.00042729824781417847, -0.0036625564098358154, 0.5122695565223694, 0.0, -0.4122137427330017, 0.8625954389572144, 1.3129770755767822, 996, 1500, 1504, 1492
-0.009461604058742523, -0.00317421555519104, 0.5100720524787903, 0.0, -0.3664122223854065, 1.0229008197784424, 1.1526718139648438, 992, 1504, 1504, 1484
-0.008973263204097748, -0.0036625564098358154, 0.504456102848053, 0.0, -0.37404578924179077, 1.3969465494155884, 1.122137427330017, 992, 1504, 1504, 1484
-0.007019899785518646, 0.0, 0.4961543083190918, 0.0, -0.06870228797197342, 1.4503816366195679, 1.3282443284988403, 992, 1504, 1504, 1484
0.0012818947434425354, -0.00854596495628357, 0.5142229199409485, 0.0, -0.10687022656202316, 1.5419846773147583, 1.2900763750076294, 992, 1504, 1504, 1496
0.006897814571857452, -0.007813453674316406, 0.5100720524787903, 0.0, -0.08396946638822556, 1.0916030406951904, 1.2137404680252075, 992, 1504, 1500, 1496
-0.005066536366939545, -0.007080942392349243, 0.5034794211387634, 0.0, -0.221374049782753, 1.038167953491211, 1.267175555229187, 992, 1504, 1500, 1496
-0.005066536366939545, -0.0012208521366119385, 0.5047003030776978, 0.0, -0.12977099418640137, 1.305343508720398, 0.8931297659873962, 992, 1504, 1500, 1496
-0.003357343375682831, 0.004883408546447754, 0.515199601650238, 0.0, -0.04580152779817581, 1.3206106424331665, 0.7099236845970154, 992, 1504, 1492, 1504
-0.004334025084972382, -0.0012208521366119385, 0.5007935762405396, 0.0, 0.40458014607429504, 1.4427480697631836, 0.007633587811142206, 992, 1504, 1492, 1504
-0.00018312782049179077, -0.0158710777759552, 0.5090953707695007, 0.0, 0.06870228797197342, 1.8167939186096191, 0.11450381577014923, 992, 1504, 1492, 1504
-0.004334025084972382, -0.012208521366119385, 0.5156879425048828, 0.0, -0.5648854970932007, 0.8015267252922058, 0.9160305261611938, 992, 1504, 1492, 1504
-0.00018312782049179077, -0.002441704273223877, 0.5161762833595276, 0.0, -0.3358778655529022, 1.1374045610427856, 1.732824444770813, 1000, 1496, 1496, 1492
-0.00555487722158432, 0.002441704273223877, 0.5191063284873962, 0.0, -0.5877862572669983, 1.6030534505844116, 2.1908397674560547, 1000, 1496, 1496, 1492
-0.016786716878414154, 0.005860090255737305, 0.5003052353858948, 0.0, 0.8091602921485901, 1.2900763750076294, 1.7099236249923706, 1000, 1496, 1496, 1492
6.104260683059692e-05, -0.018312782049179077, 0.49468928575515747, 0.0, 0.580152690410614, 1.5954198837280273, 0.9923664331436157, 1000, 1496, 1496, 1496
-0.008973263204097748, -0.015382736921310425, 0.5049444437026978, 0.0, -0.5114504098892212, 1.496183156967163, 0.32824426889419556, 992, 1504, 1500, 1496
0.00079355388879776, -0.00317421555519104, 0.504211962223053, 0.0, -0.4885496199131012, 1.0610686540603638, 0.5343511700630188, 992, 1504, 1500, 1496
-0.00872909277677536, -0.0017091929912567139, 0.5134904384613037, 0.0, -1.038167953491211, 1.2519084215164185, 0.9160305261611938, 992, 1504, 1500, 1496
-0.007019899785518646, 0.011231839656829834, 0.5049444437026978, 0.0, 0.3435114622116089, 1.3435114622116089, 1.5419846773147583, 992, 1504, 1500, 1496
-0.004822365939617157, -0.00317421555519104, 0.508607029914856, 0.0, 0.5419847369194031, 1.2748091220855713, 1.5190839767456055, 992, 1504, 1500, 1496
0.0003052130341529846, -0.02026614546775818, 0.504211962223053, 0.0, 0.32824426889419556, 1.6259541511535645, 1.3129770755767822, 992, 1504, 1500, 1496
0.004944451153278351, -0.022463679313659668, 0.5022585988044739, 0.0, -0.290076345205307, 1.0534350872039795, 1.0458015203475952, 992, 1504, 1500, 1496
-0.0026248320937156677, -0.0009766817092895508, 0.5047003030776978, 0.0, -1.2519084215164185, 0.9465649127960205, 0.8015267252922058, 996, 1504, 1500, 1496
-0.004334025084972382, 0.013673543930053711, 0.5181296467781067, 0.0, -0.3358778655529022, 1.1679389476776123, 0.847328245639801, 996, 1504, 1500, 1496
-0.006531558930873871, 0.0002441704273223877, 0.5215480327606201, 0.0, 0.07633587718009949, 1.3664121627807617, 1.160305380821228, 996, 1504, 1500, 1496
-0.004334025084972382, -0.008057624101638794, 0.5103161931037903, 0.0, 0.3435114622116089, 1.8473281860351562, 1.7022900581359863, 996, 1504, 1500, 1492
0.003235258162021637, -0.017580270767211914, 0.5061653256416321, 0.0, 0.04580152779817581, 1.1145038604736328, 1.5954198837280273, 996, 1520, 1500, 1492
0.004211939871311188, -0.007080942392349243, 0.5139787793159485, 0.0, -0.8931297659873962, 1.0229008197784424, 1.6488549709320068, 996, 1520, 1500, 1492
-0.010682456195354462, 0.0019533634185791016, 0.5071420073509216, 0.0, -0.8167939186096191, 0.9770992398262024, 1.5648854970932007, 996, 1520, 1500, 1492
-0.012635819613933563, 0.0, 0.5164204835891724, 0.0, -0.1450381726026535, 1.0229008197784424, 1.122137427330017, 996, 1520, 1496, 1496
-0.009461604058742523, -0.005127578973770142, 0.5047003030776978, 0.0, 0.15267175436019897, 1.6564885377883911, 1.1526718139648438, 992, 1504, 1496, 1496
-0.007752411067485809, -0.01806861162185669, 0.5108045339584351, 0.0, -0.05343511328101158, 1.0992366075515747, 1.3816794157028198, 992, 1504, 1496, 1496
-0.0014039799571037292, -0.01172018051147461, 0.508607029914856, 0.0, -0.35114502906799316, 1.4045801162719727, 1.7099236249923706, 992, 1504, 1496, 1496
-0.0006714686751365662, -0.011964350938796997, 0.5051886439323425, 0.0, -0.5496183037757874, 1.3282443284988403, 1.5496183633804321, 992, 1504, 1500, 1492
6.104260683059692e-05, -0.004150897264480591, 0.5020143985748291, 0.0, -0.04580152779817581, 1.4580153226852417, 1.5190839767456055, 992, 1508, 1500, 1492
-0.0028690025210380554, 0.0014650225639343262, 0.5027469396591187, 0.0, -0.09923664480447769, 1.3129770755767822, 1.2824426889419556, 992, 1508, 1500, 1492
-0.003113172948360443, -0.010010987520217896, 0.5108045339584351, 0.0, 0.3129771053791046, 1.1755725145339966, 1.2977099418640137, 992, 1508, 1500, 1492
-0.006531558930873871, -0.0043950676918029785, 0.49884018301963806, 0.0, -0.49618321657180786, 1.3740458488464355, 1.0076335668563843, 996, 1504, 1500, 1492
-0.0014039799571037292, -0.0075692832469940186, 0.5078744888305664, 0.0, -0.07633587718009949, 1.1297709941864014, 1.122137427330017, 996, 1504, 1500, 1492
-0.009705774486064911, 0.0009766817092895508, 0.5068978071212769, 0.0, -0.09923664480447769, 1.6183205842971802, 0.6335877776145935, 996, 1504, 1500, 1492
6.104260683059692e-05, -0.006104260683059692, 0.5064094662666321, 0.0, 0.40458014607429504, 1.8473281860351562, 0.30534350872039795, 996, 1504, 1504, 1492
-0.004089854657649994, -0.011231839656829834, 0.5017702579498291, 0.0, 0.4122137427330017, 1.2519084215164185, 0.1679389327764511, 992, 1504, 1504, 1492
0.003235258162021637, -0.007325112819671631, 0.5066536664962769, 0.0, -0.09160305559635162, 1.2519084215164185, 0.23664122819900513, 992, 1504, 1504, 1492
-0.0018923208117485046, -0.0026858747005462646, 0.5115370750427246, 0.0, -0.11450381577014923, 1.2137404680252075, 0.6412213444709778, 992, 1504, 1504, 1492
0.005432792007923126, -0.0036625564098358154, 0.5037236213684082, 0.0, 0.08396946638822556, 1.5954198837280273, 1.0229008197784424, 992, 1504, 1500, 1496
-0.0067757293581962585, -0.006104260683059692, 0.5047003030776978, 0.0, -0.39694657921791077, 1.6183205842971802, 1.1374045610427856, 992, 1504, 1500, 1496
-0.00238066166639328, -0.006592601537704468, 0.5073861479759216, 0.0, 0.09923664480447769, 1.3206106424331665, 1.534351110458374, 992, 1504, 1500, 1496
0.0037235990166664124, 0.0021975338459014893, 0.5090953707695007, 0.0, -0.1450381726026535, 1.305343508720398, 1.3358778953552246, 992, 1504, 1500, 1496
-0.003845684230327606, 0.0019533634185791016, 0.5017702579498291, 0.0, 0.09923664480447769, 1.4045801162719727, 1.0763359069824219, 992, 1504, 1500, 1496
-0.0011598095297813416, -0.011231839656829834, 0.5225247144699097, 0.0, -0.30534350872039795, 1.3435114622116089, 0.8320610523223877, 992, 1504, 1500, 1496
-0.004334025084972382, 0.02221950888633728, 0.5354657769203186, 0.0, 0.6641221642494202, 2.030534267425537, -1.2213740348815918, 992, 1504, 1500, 1496
0.03497741371393204, -0.012452691793441772, 0.5222805738449097, 0.0, -1.7480915784835815, 3.496183156967163, -0.4122137427330017, 992, 1504, 1500, 1496
0.012269563972949982, -0.010010987520217896, 0.5051886439323425, 0.0, -0.06870228797197342, 2.4045801162719727, 1.2061069011688232, 992, 1504, 1500, 1496
0.019350506365299225, 0.021731168031692505, 0.5269197821617126, 0.0, -0.2748091518878937, 1.572519063949585, -0.09923664480447769, 992, 1504, 1500, 1496
0.01764131337404251, -0.021975338459014893, 0.5134904384613037, 0.0, -2.244274854660034, 1.7633588314056396, -0.5190839767456055, 992, 1504, 1500, 1496
0.00933951884508133, 0.02856793999671936, 0.5308265089988708, 0.0, -1.3816794157028198, 1.9083969593048096, -0.04580152779817581, 980, 1504, 1512, 1496
0.018617995083332062, -0.0043950676918029785, 0.5225247144699097, 0.0, -2.541984796524048, 3.5877861976623535, -0.11450381577014923, 980, 1504, 1512, 1496
0.008851177990436554, 0.02002197504043579, 0.5256989598274231, 0.0, -2.3129770755767822, 2.931297779083252, -0.6641221642494202, 980, 1504, 1512, 1496
0.04425588995218277, -0.02441704273223877, 0.488096684217453, 0.0, -1.2977099418640137, 4.297709941864014, -1.9083969593048096, 980, 1504, 1512, 1496
0.0376632884144783, -0.022463679313659668, 0.476132333278656, 0.0, -2.9160306453704834, 3.0916030406951904, -3.1679389476776123, 988, 1516, 1504, 1496
0.0178854838013649, 0.0002441704273223877, 0.5125137567520142, 0.0, -2.3740458488464355, 2.7404580116271973, -5.068702220916748, 988, 1516, 1504, 1496
0.008607007563114166, 0.011476010084152222, 0.5186179876327515, 0.0, -2.175572633743286, 5.167938709259033, -7.664122104644775, 988, 1516, 1504, 1496
-0.026065193116664886, -0.027347087860107422, 0.5310707092285156, 0.0, -3.7404580116271973, 4.572519302368164, -8.717556953430176, 988, 1516, 1504, 1496
-0.03729703277349472, -0.002441704273223877, 0.5203272104263306, 0.0, -0.28244274854660034, 2.572519063949585, -9.946564674377441, 992, 1504, 1500, 1496
-0.007996581494808197, -0.027835428714752197, 0.48321327567100525, 0.0, -2.717557191848755, 2.427480936050415, -10.213740348815918, 992, 1504, 1500, 1496
-0.031436942517757416, -0.04639238119125366, 0.49884018301963806, 0.0, -2.0916030406951904, 3.923664093017578, -10.068702697753906, 992, 1504, 1500, 1496
-0.04047124832868576, -0.06055426597595215, 0.5066536664962769, 0.0, -1.2824426889419556, 4.1984734535217285, -9.58015251159668, 996, 1504, 1500, 1496
-0.040959589183330536, -0.03906726837158203, 0.5215480327606201, 0.0, -1.6412214040756226, 3.541984796524048, -9.32824420928955, 996, 1500, 1500, 1496
-0.02460017055273056, -0.034428030252456665, 0.5420583486557007, 0.0, -1.7251908779144287, 5.343511581420898, -9.12977123260498, 996, 1500, 1500, 1496
-0.00018312782049179077, -0.04907825589179993, 0.5591502785682678, 0.0, -0.442748099565506, 5.8015265464782715, -9.083969116210938, 996, 1500, 1500, 1496
0.0039677694439888, -0.022952020168304443, 0.5488951206207275, 0.0, -0.038167938590049744, 5.916030406951904, -9.007633209228516, 992, 1508, 1500, 1480
0.021303869783878326, -0.025882065296173096, 0.5298498272895813, 0.0, -0.37404578924179077, 7.633587837219238, -9.465648651123047, 992, 1508, 1500, 1480
0.025698937475681305, -0.038578927516937256, 0.5169088244438171, 0.0, -1.8167939186096191, 8.610687255859375, -9.923664093017578, 992, 1508, 1500, 1480
0.013002075254917145, -0.021486997604370117, 0.5154438018798828, 0.0, -0.9236640930175781, 9.396946907043457, -11.297709465026855, 992, 1508, 1500, 1496
0.015443779528141022, -0.023684531450271606, 0.5183738470077515, 0.0, -1.9465649127960205, 10.412213325500488, -12.038167953491211, 996, 1504, 1500, 1496
6.104260683059692e-05, -0.022463679313659668, 0.5125137567520142, 0.0, -1.3206106424331665, 9.977099418640137, -12.625954627990723, 996, 1504, 1500, 1496
-0.006287388503551483, -0.008301794528961182, 0.5154438018798828, 0.0, -0.9160305261611938, 10.480916023254395, -12.4503812789917, 996, 1504, 1500, 1496
0.0005493834614753723, -0.003906726837158203, 0.5068978071212769, 0.0, 0.8015267252922058, 10.374045372009277, -11.809160232543945, 996, 1504, 1500, 1492
-0.023867659270763397, 0.015626907348632812, 0.49884018301963806, 0.0, -0.290076345205307, 9.732824325561523, -11.503816604614258, 996, 1504, 1500, 1492
-0.017519228160381317, 0.03809058666229248, 0.5034794211387634, 0.0, 1.4503816366195679, 9.0, -10.083969116210938, 996, 1504, 1500, 1492
-0.007264070212841034, 0.03516054153442383, 0.5095837116241455, 0.0, 0.12977099418640137, 10.167939186096191, -8.343511581420898, 996, 1504, 1500, 1492
-0.02899523824453354, 0.05005493760108948, 0.514955461025238, 0.0, -0.3893129825592041, 10.320611000061035, -5.900763511657715, 996, 1504, 1500, 1492
-0.01947259157896042, 0.06177511811256409, 0.5142229199409485, 0.0, 0.9007633328437805, 8.885496139526367, -3.8396947383880615, 996, 1504, 1500, 1492
-0.015321694314479828, 0.07056525349617004, 0.5122695565223694, 0.0, 1.2442748546600342, 9.137404441833496, -1.9312976598739624, 996, 1504, 1500, 1492
-0.008973263204097748, 0.05103161931037903, 0.5034794211387634, 0.0, 2.2595419883728027, 8.38167953491211, -0.08396946638822556, 996, 1504, 1500, 1492
-0.029483579099178314, 0.049322426319122314, 0.5056769847869873, 0.0, 3.8091602325439453, 8.877862930297852, 0.015267175622284412, 992, 1508, 1500, 1492
-0.032657794654369354, 0.007325112819671631, 0.49517762660980225, 0.0, 0.6488549709320068, 7.6259541511535645, -0.5496183037757874, 992, 1508, 1500, 1492
-0.03412281721830368, 0.0021975338459014893, 0.4856549799442291, 0.0, 3.1297709941864014, 9.236640930175781, -1.5648854970932007, 992, 1508, 1500, 1492
-0.057074837386608124, -0.0158710777759552, 0.48931753635406494, 0.0, 1.9465649127960205, 8.236640930175781, -2.3053436279296875, 996, 1508, 1500, 1492
-0.04462214559316635, -0.011964350938796997, 0.4722256064414978, 0.0, 3.7404580116271973, 6.167938709259033, -2.969465732574463, 996, 1504, 1500, 1492
-0.04584299772977829, -0.007325112819671631, 0.5015260577201843, 0.0, 3.2748091220855713, 5.687022686004639, -3.5877861976623535, 996, 1504, 1500, 1492
-0.03705286234617233, -0.020510315895080566, 0.5115370750427246, 0.0, 3.282442808151245, 7.320610523223877, -4.27480936050415, 996, 1504, 1500, 1492
-0.02997191995382309, -0.01684775948524475, 0.5093395113945007, 0.0, 2.1984732151031494, 6.114503860473633, -4.152671813964844, 984, 1504, 1512, 1492
-0.027286045253276825, -0.016115248203277588, 0.5322915315628052, 0.0, 1.6717556715011597, 7.366412162780762, -4.7633585929870605, 984, 1504, 1512, 1492
-0.04291295260190964, -0.038578927516937256, 0.5369307994842529, 0.0, 0.39694657921791077, 6.786259651184082, -4.8015265464782715, 984, 1504, 1512, 1492
-0.041203759610652924, -0.051275789737701416, 0.528140664100647, 0.0, 0.1221374049782753, 6.3053436279296875, -5.70992374420166, 984, 1504, 1512, 1496
-0.030704431235790253, -0.05371749401092529, 0.49932852387428284, 0.0, 0.1679389327764511, 6.511450290679932, -6.29007625579834, 992, 1508, 1500, 1496
-0.04340129345655441, -0.054694175720214844, 0.5005493760108948, 0.0, -0.8396946787834167, 7.381679534912109, -7.213740348815918, 992, 1508, 1500, 1496
-0.05097057670354843, -0.06446099281311035, 0.5132462382316589, 0.0, -1.770992398262024, 8.442748069763184, -8.442748069763184, 992, 1508, 1500, 1496
-0.05634232610464096, -0.06177511811256409, 0.5122695565223694, 0.0, -2.3816792964935303, 8.572519302368164, -9.274808883666992, 992, 1508, 1504, 1492
-0.05780734866857529, -0.05078744888305664, 0.5217922329902649, 0.0, -2.85496187210083, 7.320610523223877, -10.534351348876953, 992, 1504, 1504, 1492
-0.03827371448278427, -0.041997313499450684, 0.5176413059234619, 0.0, -3.5267176628112793, 7.068702220916748, -10.809160232543945, 992, 1504, 1504, 1492
-0.032657794654369354, -0.03638139367103577, 0.5266756415367126, 0.0, -2.1221373081207275, 6.496183395385742, -11.5496187210083, 992, 1504, 1504, 1492
-0.02044927328824997, -0.04541569948196411, 0.48712000250816345, 0.0, -3.0610687732696533, 7.671755790710449, -11.244275093078613, 992, 1508, 1504, 1492
-0.024111829698085785, -0.0297887921333313, 0.4863874912261963, 0.0, -1.5114504098892212, 7.29007625579834, -10.633587837219238, 992, 1508, 1504, 1492
-0.028506897389888763, -0.04102063179016113, 0.48907336592674255, 0.0, -1.85496187210083, 5.732824325561523, -10.595419883728027, 992, 1508, 1504, 1492
-0.013856671750545502, -0.038578927516937256, 0.4802832305431366, 0.0, -0.5190839767456055, 5.679389476776123, -9.679388999938965, 992, 1508, 1504, 1496
-0.020205102860927582, -0.03955560922622681, 0.49151507019996643, 0.0, -0.8549618124961853, 5.862595558166504, -8.900763511657715, 992, 1504, 1500, 1496
-0.015565864741802216, -0.03491637110710144, 0.49884018301963806, 0.0, -0.32824426889419556, 5.282442569732666, -8.427480697631836, 992, 1504, 1500, 1496
-0.014589183032512665, -0.04541569948196411, 0.49542179703712463, 0.0, 0.5190839767456055, 3.755725145339966, -7.526717662811279, 992, 1504, 1500, 1496
-0.00872909277677536, -0.044927358627319336, 0.5095837116241455, 0.0, 0.09923664480447769, 5.29007625579834, -6.641221523284912, 992, 1504, 1504, 1492
-0.018740080296993256, -0.04541569948196411, 0.5247222781181335, 0.0, 0.9923664331436157, 5.335877895355225, -5.664122104644775, 992, 1504, 1504, 1492
-0.00872909277677536, -0.033451348543167114, 0.5293614864349365, 0.0, 0.3664122223854065, 4.213740348815918, -4.618320465087891, 992, 1504, 1504, 1492
-0.006287388503551483, -0.052496641874313354, 0.519350528717041, 0.0, 1.770992398262024, 5.167938709259033, -5.389312744140625, 992, 1504, 1504, 1492
-0.023867659270763397, -0.030521303415298462, 0.5108045339584351, 0.0, 0.732824444770813, 6.068702220916748, -5.030534267425537, 992, 1504, 1500, 1496
-0.018007569015026093, -0.049322426319122314, 0.504211962223053, 0.0, 1.9923664331436157, 5.870229244232178, -4.572519302368164, 992, 1508, 1500, 1496
-0.027041874825954437, -0.02661457657814026, 0.5354657769203186, 0.0, -0.15267175436019897, 6.175572395324707, -3.8320610523223877, 992, 1508, 1500, 1496
-0.021181784570217133, -0.033451348543167114, 0.5320473909378052, 0.0, 1.2061069011688232, 5.053435325622559, -3.2977099418640137, 992, 1508, 1500, 1496
-0.026553533971309662, -0.018312782049179077, 0.5291173458099365, 0.0, 0.7633587718009949, 5.8015265464782715, -2.3740458488464355, 992, 1504, 1500, 1496
-0.01825173944234848, -0.015626907348632812, 0.534733235836029, 0.0, 0.3206106722354889, 5.358778476715088, -1.7862595319747925, 992, 1504, 1500, 1496
-0.018007569015026093, -0.012208521366119385, 0.5305823683738708, 0.0, 1.0992366075515747, 5.70992374420166, -1.427480936050415, 992, 1504, 1500, 1496
-0.004334025084972382, -0.007080942392349243, 0.5293614864349365, 0.0, -0.3358778655529022, 6.488549709320068, -0.1450381726026535, 992, 1504, 1500, 1496
-0.011659137904644012, 0.0017091929912567139, 0.5166646242141724, 0.0, 0.5419847369194031, 6.175572395324707, 0.17557251453399658, 992, 1508, 1500, 1496
-0.018984250724315643, 0.0012208521366119385, 0.5315590500831604, 0.0, -0.6717557311058044, 6.389312744140625, 0.8396946787834167, 992, 1508, 1500, 1496
-0.026553533971309662, -0.007080942392349243, 0.523745596408844, 0.0, -0.5190839767456055, 5.122137546539307, 1.0, 992, 1508, 1500, 1496
-0.021914295852184296, 0.0004883408546447754, 0.5154438018798828, 0.0, 0.11450381577014923, 5.664122104644775, 1.2519084215164185, 992, 1508, 1500, 1496
-0.028018556535243988, 0.004150897264480591, 0.5232572555541992, 0.0, -1.2061069011688232, 5.671755790710449, 1.8244274854660034, 992, 1504, 1500, 1496
-0.033634476363658905, -0.005860090255737305, 0.5405933260917664, 0.0, -1.4580153226852417, 4.893129825592041, 2.3358778953552246, 992, 1504, 1500, 1496
-0.02044927328824997, 0.0043950676918029785, 0.5403491854667664, 0.0, -1.427480936050415, 4.809160232543945, 2.8091602325439453, 992, 1504, 1500, 1496
-0.0277743861079216, -0.0019533634185791016, 0.5386399626731873, 0.0, -1.6488549709320068, 4.977099418640137, 2.503816843032837, 992, 1504, 1500, 1496
-0.026309363543987274, 0.0029300451278686523, 0.5291173458099365, 0.0, -2.0992367267608643, 4.450381755828857, 2.778625965118408, 992, 1504, 1500, 1496
-0.02362348884344101, -0.0012208521366119385, 0.5440117120742798, 0.0, -1.8320610523223877, 4.267175674438477, 3.1221373081207275, 992, 1504, 1500, 1496
-0.03607618063688278, 0.005615919828414917, 0.5442559123039246, 0.0, -2.282442808151245, 4.2366414070129395, 2.85496187210083, 992, 1504, 1500, 1496
-0.034855328500270844, 0.005860090255737305, 0.534489095211029, 0.0, -1.610687017440796, 3.419847249984741, 3.076335906982422, 992, 1508, 1500, 1496
-0.03851788491010666, 0.003906726837158203, 0.5442559123039246, 0.0, -1.9160305261611938, 3.2366411685943604, 3.1297709941864014, 992, 1508, 1500, 1496
-0.039006225764751434, 0.0021975338459014893, 0.5545110702514648, 0.0, -2.396946668624878, 2.5877861976623535, 2.9541983604431152, 992, 1508, 1500, 1496
-0.03656452149152756, 0.007325112819671631, 0.5462092757225037, 0.0, -1.839694619178772, 1.8625954389572144, 2.9007632732391357, 996, 1508, 1500, 1496
-0.03705286234617233, -0.0019533634185791016, 0.552069365978241, 0.0, -2.3740458488464355, 1.5648854970932007, 2.641221284866333, 996, 1504, 1500, 1496
-0.04657550901174545, -0.009766817092895508, 0.5549994111061096, 0.0, -2.106870174407959, 0.10687022656202316, 2.6259541511535645, 996, 1504, 1500, 1496
-0.052679769694805145, -0.013429373502731323, 0.5496276617050171, 0.0, -1.6488549709320068, -0.8091602921485901, 2.3053436279296875, 996, 1504, 1500, 1496
-0.05097057670354843, -0.011964350938796997, 0.5652545690536499, 0.0, -0.49618321657180786, -1.9007633924484253, 2.007633686065674, 996, 1500, 1500, 1496
-0.04584299772977829, -0.0014650225639343262, 0.5569527745246887, 0.0, -0.3129771053791046, -2.29007625579834, 1.229007601737976, 996, 1500, 1500, 1496
-0.037785373628139496, -0.016115248203277588, 0.5667195916175842, 0.0, 0.6259542107582092, -2.6870229244232178, 0.9618320465087891, 996, 1500, 1500, 1496
-0.058051519095897675, -0.005615919828414917, 0.5664753913879395, 0.0, 1.3511450290679932, -3.1984732151031494, 0.5343511700630188, 996, 1500, 1500, 1492
-0.05414479225873947, -0.018312782049179077, 0.5669637322425842, 0.0, 1.8091603517532349, -4.335877895355225, 0.16030533611774445, 992, 1504, 1500, 1492
-0.050482235848903656, -0.007813453674316406, 0.5447442531585693, 0.0, 2.816793918609619, -5.702290058135986, -0.28244274854660034, 992, 1504, 1500, 1492
-0.04877304285764694, -0.013429373502731323, 0.5601269602775574, 0.0, 3.3358778953552246, -7.557251930236816, -0.8931297659873962, 992, 1504, 1500, 1492
-0.043157123029232025, -0.009034305810928345, 0.5703821182250977, 0.0, 4.648854732513428, -9.351144790649414, -0.9465649127960205, 992, 1504, 1500, 1496
-0.03632035106420517, -0.003906726837158203, 0.5654987096786499, 0.0, 5.2366414070129395, -11.320611000061035, -1.2824426889419556, 992, 1504, 1500, 1496
-0.045354656875133514, -0.010010987520217896, 0.5654987096786499, 0.0, 6.038167953491211, -13.229007720947266, -1.3358778953552246, 992, 1504, 1500, 1496
-0.04266878217458725, -0.007325112819671631, 0.5667195916175842, 0.0, 6.5190839767456055, -15.122137069702148, -1.8625954389572144, 992, 1504, 1500, 1496
-0.04266878217458725, -0.005615919828414917, 0.5615919828414917, 0.0, 6.931297779083252, -17.03816795349121, -1.9007633924484253, 992, 1504, 1500, 1496
-0.040959589183330536, -0.008057624101638794, 0.5525577068328857, 0.0, 7.58015251159668, -18.56488609313965, -2.0458016395568848, 992, 1504, 1500, 1496
-0.03949456661939621, -0.007325112819671631, 0.552069365978241, 0.0, 7.755725383758545, -20.3435115814209, -1.9236640930175781, 992, 1504, 1500, 1496
-0.04022707790136337, -0.01904529333114624, 0.5593944787979126, 0.0, 8.076335906982422, -21.56488609313965, -1.9236640930175781, 992, 1504, 1500, 1496
-0.030460260808467865, -0.019777804613113403, 0.5530460476875305, 0.0, 8.633587837219238, -22.39694595336914, -1.8244274854660034, 992, 1508, 1500, 1496
-0.03925039619207382, -0.021731168031692505, 0.5464534163475037, 0.0, 8.641221046447754, -23.18320655822754, -1.5419846773147583, 992, 1508, 1500, 1496
-0.03632035106420517, -0.020998656749725342, 0.5447442531585693, 0.0, 8.694656372070312, -24.152671813964844, -1.6717556715011597, 992, 1508, 1500, 1496
-0.028262726962566376, -0.01904529333114624, 0.5542668700218201, 0.0, 9.061068534851074, -24.694656372070312, -1.7099236249923706, 996, 1508, 1500, 1496
-0.028018556535243988, -0.02002197504043579, 0.5484067797660828, 0.0, 8.923664093017578, -24.992366790771484, -1.6412214040756226, 996, 1504, 1500, 1496
-0.02142595499753952, -0.022463679313659668, 0.5484067797660828, 0.0, 8.5496187210083, -25.40458106994629, -1.7862595319747925, 996, 1504, 1500, 1496
-0.014833353459835052, -0.019777804613113403, 0.5364424586296082, 0.0, 8.5496187210083, -25.129770278930664, -1.8854961395263672, 996, 1504, 1500, 1496
-0.01605420559644699, -0.014406055212020874, 0.5369307994842529, 0.0, 8.083969116210938, -25.56488609313965, -1.8320610523223877, 992, 1504, 1504, 1492
-0.020205102860927582, -0.011964350938796997, 0.5401049852371216, 0.0, 7.641221523284912, -25.648855209350586, -1.839694619178772, 992, 1504, 1504, 1492
-0.014345012605190277, -0.014406055212020874, 0.5318031907081604, 0.0, 7.122137546539307, -25.969465255737305, -2.0229008197784424, 992, 1504, 1504, 1492
-0.010438285768032074, -0.012941032648086548, 0.5247222781181335, 0.0, 6.56488561630249, -26.587785720825195, -2.244274854660034, 992, 1504, 1504, 1488
-0.004578195512294769, -0.0158710777759552, 0.5298498272895813, 0.0, 6.343511581420898, -26.709922790527344, -1.9923664331436157, 992, 1504, 1500, 1488
-0.004089854657649994, -0.00952264666557312, 0.5244780778884888, 0.0, 5.984732627868652, -26.702289581298828, -2.1221373081207275, 992, 1504, 1500, 1488
-0.006531558930873871, -0.012941032648086548, 0.5166646242141724, 0.0, 5.366412162780762, -26.534351348876953, -2.0610687732696533, 992, 1504, 1500, 1488
-0.004334025084972382, -0.01684775948524475, 0.5130020976066589, 0.0, 5.106870174407959, -26.3435115814209, -2.351145029067993, 996, 1504, 1500, 1488
-0.014345012605190277, -0.026126235723495483, 0.5271639823913574, 0.0, 4.893129825592041, -25.6564884185791, -2.1221373081207275, 996, 1504, 1500, 1488
-0.020205102860927582, -0.011476010084152222, 0.4978635013103485, 0.0, 5.022900581359863, -25.946565628051758, -2.2595419883728027, 996, 1504, 1500, 1488
-0.013856671750545502, -0.025882065296173096, 0.4817482531070709, 0.0, 3.2671756744384766, -23.083969116210938, -3.0229008197784424, 996, 1504, 1500, 1488
-0.012635819613933563, -0.028323769569396973, 0.4944451153278351, 0.0, 2.862595319747925, -22.366413116455078, -3.038167953491211, 996, 1504, 1500, 1492
-0.008484922349452972, -0.018801122903823853, 0.5095837116241455, 0.0, 3.862595319747925, -21.748090744018555, -3.4427480697631836, 996, 1504, 1500, 1492
-0.005066536366939545, -0.029056280851364136, 0.4966426491737366, 0.0, 3.3664121627807617, -19.19847297668457, -3.4427480697631836, 996, 1504, 1500, 1492
0.006653644144535065, -0.02637040615081787, 0.5047003030776978, 0.0, 6.251908302307129, -19.755725860595703, -3.5572519302368164, 996, 1504, 1500, 1492
0.0076303258538246155, -0.0036625564098358154, 0.49298009276390076, 0.0, 5.992366313934326, -17.870229721069336, -3.3664121627807617, 996, 1504, 1500, 1492
0.00079355388879776, -0.011476010084152222, 0.4939567744731903, 0.0, 5.893129825592041, -16.06106948852539, -3.3740458488464355, 996, 1504, 1500, 1492
0.004211939871311188, -0.017336100339889526, 0.488096684217453, 0.0, 7.030534267425537, -16.870229721069336, -3.0610687732696533, 996, 1504, 1500, 1492
0.006653644144535065, -0.005615919828414917, 0.48516663908958435, 0.0, 7.3053436279296875, -15.564885139465332, -2.9770991802215576, 1004, 1504, 1504, 1492
0.011781223118305206, -0.00952264666557312, 0.4883408546447754, 0.0, 7.671755790710449, -15.312976837158203, -2.8473281860351562, 1004, 1492, 1504, 1492
0.019350506365299225, -0.0009766817092895508, 0.4817482531070709, 0.0, 8.465648651123047, -15.183206558227539, -3.0458016395568848, 1004, 1492, 1504, 1492
0.005676962435245514, -0.005127578973770142, 0.47149309515953064, 0.0, 8.564885139465332, -12.725191116333008, -3.465648889541626, 1004, 1492, 1504, 1492
0.0051886215806007385, -0.010255157947540283, 0.48907336592674255, 0.0, 9.152671813964844, -13.312976837158203, -3.2061069011688232, 992, 1504, 1504, 1492
0.01251373440027237, 0.0019533634185791016, 0.48345744609832764, 0.0, 9.984732627868652, -12.190839767456055, -3.1679389476776123, 992, 1504, 1504, 1492
0.014955438673496246, 0.006104260683059692, 0.4858991503715515, 0.0, 8.793892860412598, -9.885496139526367, -3.4503817558288574, 992, 1504, 1504, 1492
0.0037235990166664124, -0.016115248203277588, 0.4758881628513336, 0.0, 8.946564674377441, -10.244275093078613, -3.320610761642456, 992, 1504, 1504, 1492
0.007874496281147003, 0.0, 0.4700280725955963, 0.0, 9.664122581481934, -8.885496139526367, -3.389312982559204, 996, 1512, 1500, 1492
0.011292882263660431, -0.00952264666557312, 0.48101574182510376, 0.0, 8.183206558227539, -7.6259541511535645, -3.9389312267303467, 996, 1512, 1500, 1492
0.005921132862567902, -0.009034305810928345, 0.46905139088630676, 0.0, 8.648855209350586, -7.72519063949585, -4.022900581359863, 996, 1512, 1500, 1492
0.012025393545627594, -0.0004883408546447754, 0.4727139472961426, 0.0, 9.106870651245117, -7.030534267425537, -3.9465649127960205, 996, 1512, 1500, 1496
0.013002075254917145, -0.010499328374862671, 0.46343547105789185, 0.0, 8.267175674438477, -5.8015265464782715, -4.511450290679932, 992, 1504, 1500, 1496
0.011048711836338043, -0.00317421555519104, 0.46905139088630676, 0.0, 8.984732627868652, -6.022900581359863, -4.656488418579102, 992, 1504, 1500, 1496
0.024966426193714142, 0.0036625564098358154, 0.46367964148521423, 0.0, 8.656488418579102, -5.206106662750244, -5.389312744140625, 992, 1504, 1500, 1496
0.017397142946720123, -0.0036625564098358154, 0.4600170850753784, 0.0, 7.923664093017578, -4.610687255859375, -5.9083967208862305, 976, 1504, 1520, 1492
0.018373824656009674, 0.011964350938796997, 0.46172627806663513, 0.0, 8.16030502319336, -4.839694499969482, -6.4122138023376465, 976, 1504, 1520, 1492
0.03400073200464249, 0.012941032648086548, 0.471737265586853, 0.0, 6.7633585929870605, -3.6183207035064697, -7.099236488342285, 976, 1504, 1520, 1492
0.022524721920490265, 0.010255157947540283, 0.4763765037059784, 0.0, 5.961832046508789, -3.2748091220855713, -7.14503812789917, 976, 1504, 1520, 1496
0.025698937475681305, 0.015138566493988037, 0.46709802746772766, 0.0, 5.748091697692871, -3.3740458488464355, -7.083969593048096, 996, 1500, 1500, 1496
0.02740813046693802, 0.01172018051147461, 0.47930654883384705, 0.0, 4.488549709320068, -2.1603052616119385, -7.351145267486572, 996, 1500, 1500, 1496
0.01764131337404251, 0.00854596495628357, 0.4800390601158142, 0.0, 4.343511581420898, -2.885496139526367, -7.213740348815918, 996, 1500, 1500, 1496
0.025943107903003693, 0.014406055212020874, 0.48296910524368286, 0.0, 4.022900581359863, -2.7328243255615234, -7.137404441833496, 996, 1500, 1500, 1496
0.021303869783878326, 0.00634843111038208, 0.48077157139778137, 0.0, 2.9465649127960205, -1.6259541511535645, -7.595419883728027, 992, 1504, 1500, 1496
0.020327188074588776, 0.0012208521366119385, 0.48077157139778137, 0.0, 2.786259651184082, -2.396946668624878, -7.541984558105469, 992, 1504, 1500, 1496
0.023257233202457428, -0.002441704273223877, 0.4700280725955963, 0.0, 1.7099236249923706, -2.923664093017578, -7.442748069763184, 992, 1504, 1500, 1496
0.02081552892923355, -0.002441704273223877, 0.4766206741333008, 0.0, 1.770992398262024, -1.572519063949585, -7.793893337249756, 1000, 1504, 1500, 1496
0.004944451153278351, -0.0014650225639343262, 0.48321327567100525, 0.0, 1.038167953491211, -2.8778626918792725, -7.572519302368164, 1000, 1496, 1500, 1496
0.024966426193714142, -0.0075692832469940186, 0.46758636832237244, 0.0, 0.49618321657180786, -3.396946668624878, -7.992366313934326, 1000, 1496, 1500, 1496
0.008851177990436554, -0.0012208521366119385, 0.48077157139778137, 0.0, 0.04580152779817581, -3.1908397674560547, -8.244275093078613, 1000, 1496, 1500, 1496
0.020083017647266388, 0.0043950676918029785, 0.48321327567100525, 0.0, -0.23664122819900513, -4.870229244232178, -8.09160327911377, 992, 1504, 1500, 1496
0.022524721920490265, -0.0019533634185791016, 0.4819924235343933, 0.0, -0.5343511700630188, -4.755725383758545, -7.977099418640137, 992, 1504, 1500, 1496
0.009583689272403717, -0.003906726837158203, 0.5015260577201843, 0.0, -0.7633587718009949, -5.4122138023376465, -7.946564674377441, 992, 1504, 1500, 1496
0.015199609100818634, 0.0002441704273223877, 0.4866316616535187, 0.0, -0.7938931584358215, -5.977099418640137, -7.633587837219238, 992, 1504, 1500, 1496
0.021792210638523102, -0.0004883408546447754, 0.48321327567100525, 0.0, -1.3511450290679932, -5.610687255859375, -7.549618244171143, 992, 1504, 1500, 1496
0.01568794995546341, -0.008301794528961182, 0.49322426319122314, 0.0, -0.9694656729698181, -5.549618244171143, -7.282442569732666, 992, 1504, 1500, 1496
0.020327188074588776, -0.0009766817092895508, 0.49151507019996643, 0.0, -1.0, -5.511450290679932, -7.137404441833496, 992, 1504, 1500, 1496
0.019838847219944, -0.011231839656829834, 0.49078255891799927, 0.0, -1.3740458488464355, -4.770992279052734, -6.618320465087891, 992, 1504, 1496, 1500
0.011292882263660431, 0.0014650225639343262, 0.49713099002838135, 0.0, -0.9694656729698181, -4.740458011627197, -6.3740458488464355, 992, 1504, 1496, 1500
0.01349041610956192, -0.005860090255737305, 0.48101574182510376, 0.0, -1.3282443284988403, -4.793893337249756, -6.427480697631836, 992, 1504, 1496, 1500
0.004700280725955963, -0.010010987520217896, 0.49127089977264404, 0.0, -1.6488549709320068, -3.9083969593048096, -6.396946430206299, 992, 1504, 1496, 1500
-0.0006714686751365662, -0.013917714357376099, 0.4824807643890381, 0.0, -2.3816792964935303, -4.496183395385742, -6.282442569732666, 992, 1504, 1500, 1496
0.007874496281147003, -0.009034305810928345, 0.48296910524368286, 0.0, -2.7404580116271973, -3.992366313934326, -6.1984734535217285, 992, 1504, 1500, 1496
-0.004822365939617157, -0.012941032648086548, 0.5068978071212769, 0.0, -2.85496187210083, -3.992366313934326, -5.977099418640137, 992, 1504, 1500, 1496
0.007386155426502228, -0.0021975338459014893, 0.49688681960105896, 0.0, -3.2977099418640137, -3.8015267848968506, -5.778625965118408, 992, 1504, 1500, 1496
0.006897814571857452, -0.01269686222076416, 0.49908435344696045, 0.0, -3.496183156967163, -3.0152671337127686, -5.702290058135986, 996, 1504, 1500, 1496
0.004944451153278351, -0.010255157947540283, 0.5020143985748291, 0.0, -3.427480936050415, -3.541984796524048, -5.7633585929870605, 996, 1504, 1500, 1496
0.017397142946720123, -0.009278476238250732, 0.5012819170951843, 0.0, -2.85496187210083, -3.396946668624878, -5.473282337188721, 996, 1504, 1500, 1496
0.0037235990166664124, 0.0021975338459014893, 0.5056769847869873, 0.0, -3.0992367267608643, -3.213740348815918, -5.549618244171143, 992, 1504, 1500, 1496
0.007386155426502228, 0.005860090255737305, 0.5020143985748291, 0.0, -2.969465732574463, -3.7251908779144287, -5.557251930236816, 992, 1504, 1500, 1496
0.00933951884508133, 0.015138566493988037, 0.49737516045570374, 0.0, -2.137404680252075, -3.8778626918792725, -5.671755790710449, 992, 1504, 1500, 1496
0.01349041610956192, 0.015138566493988037, 0.495665967464447, 0.0, -2.816793918609619, -3.9007632732391357, -5.473282337188721, 992, 1504, 1500, 1496
0.010804541409015656, 0.008301794528961182, 0.5010377168655396, 0.0, -2.6641221046447754, -4.793893337249756, -5.076335906982422, 992, 1504, 1504, 1496
0.013734586536884308, 0.012208521366119385, 0.4978635013103485, 0.0, -2.328244209289551, -4.923664093017578, -5.656488418579102, 992, 1504, 1504, 1496
0.014955438673496246, 0.007813453674316406, 0.49322426319122314, 0.0, -2.8778626918792725, -5.0, -5.70992374420166, 992, 1504, 1504, 1496
0.013246245682239532, 0.02124282717704773, 0.48712000250816345, 0.0, -2.5267176628112793, -5.41984748840332, -5.687022686004639, 992, 1504, 1504, 1492
0.013734586536884308, 0.015138566493988037, 0.4697839021682739, 0.0, -2.717557191848755, -5.351145267486572, -5.786259651184082, 992, 1504, 1504, 1492
0.009095348417758942, 0.01709192991256714, 0.476132333278656, 0.0, -2.885496139526367, -5.328244209289551, -5.6259541511535645, 992, 1504, 1504, 1492
0.025943107903003693, 0.023928701877593994, 0.4563545286655426, 0.0, -2.503816843032837, -5.511450290679932, -5.259541988372803, 992, 1504, 1504, 1492
0.021548040211200714, 0.024172872304916382, 0.440239280462265, 0.0, -2.9389312267303467, -3.6946563720703125, -5.206106662750244, 1008, 1504, 1504, 1492
-0.0026248320937156677, 0.02637040615081787, 0.49713099002838135, 0.0, -3.137404680252075, -3.3816792964935303, -5.229007720947266, 1008, 1492, 1504, 1492
0.04132584482431412, 0.03784641623497009, 0.46099376678466797, 0.0, 0.5572519302368164, -4.648854732513428, -4.4809160232543945, 1008, 1492, 1504, 1492
0.012757904827594757, 0.025149554014205933, 0.4822365939617157, 0.0, -1.3435114622116089, -0.6564885377883911, -4.961832046508789, 1008, 1492, 1504, 1492
0.006409473717212677, 0.015626907348632812, 0.4568428695201874, 0.0, 0.9389312863349915, -1.7938930988311768, -4.106870174407959, 992, 1504, 1504, 1492
0.011292882263660431, -0.0021975338459014893, 0.5039677619934082, 0.0, -0.12977099418640137, -1.7862595319747925, -3.2595419883728027, 992, 1504, 1504, 1492
-0.0119033083319664, 0.031009644269943237, 0.5259431004524231, 0.0, 3.503816843032837, -3.389312982559204, -2.7938930988311768, 992, 1504, 1504, 1492
0.021303869783878326, 0.027102917432785034, 0.4978635013103485, 0.0, 0.7022900581359863, -2.610687017440796, -3.2595419883728027, 992, 1504, 1504, 1492
-0.00238066166639328, 0.02002197504043579, 0.4978635013103485, 0.0, 0.18320611119270325, -0.221374049782753, -2.5877861976623535, 996, 1504, 1500, 1492
-0.001648150384426117, 0.025637894868850708, 0.5029910802841187, 0.0, 1.3129770755767822, -2.755725145339966, -2.8015267848968506, 996, 1504, 1500, 1492
0.021303869783878326, 0.03393968939781189, 0.5117812156677246, 0.0, 1.2061069011688232, -3.5954198837280273, -2.923664093017578, 996, 1504, 1500, 1492
0.016176290810108185, 0.04419484734535217, 0.49517762660980225, 0.0, 0.8625954389572144, -3.534351110458374, -2.541984796524048, 992, 1504, 1500, 1492
0.01886216551065445, 0.03418385982513428, 0.5132462382316589, 0.0, 0.3358778655529022, -3.7938930988311768, -3.0534350872039795, 992, 1504, 1500, 1492
0.021792210638523102, 0.03638139367103577, 0.49151507019996643, 0.0, 0.8549618124961853, -3.1679389476776123, -3.1526718139648438, 992, 1504, 1500, 1492
0.03131485730409622, 0.03589305281639099, 0.4966426491737366, 0.0, 0.22900763154029846, -3.419847249984741, -3.1908397674560547, 992, 1504, 1500, 1492
0.045965082943439484, 0.027347087860107422, 0.49078255891799927, 0.0, 0.7557252049446106, -2.9083969593048096, -3.14503812789917, 996, 1508, 1500, 1492
0.06232450157403946, 0.03320717811584473, 0.5010377168655396, 0.0, 1.4045801162719727, -2.5572519302368164, -2.778625965118408, 996, 1508, 1500, 1492
0.06842876225709915, 0.03271883726119995, 0.4942009449005127, 0.0, 2.068702220916748, -1.0992366075515747, -2.7709922790527344, 996, 1508, 1500, 1492
0.06647539883852005, 0.029300451278686523, 0.5061653256416321, 0.0, 3.7633588314056396, 0.05343511328101158, -2.007633686065674, 996, 1508, 1500, 1492
0.06989378482103348, 0.04102063179016113, 0.49688681960105896, 0.0, 5.206106662750244, 1.3206106424331665, -1.6335878372192383, 992, 1508, 1500, 1492
0.06867293268442154, 0.03735807538032532, 0.49713099002838135, 0.0, 6.396946430206299, 3.0992367267608643, -1.106870174407959, 992, 1508, 1500, 1492
0.0694054439663887, 0.03589305281639099, 0.49932852387428284, 0.0, 8.603053092956543, 4.312977313995361, -0.18320611119270325, 992, 1508, 1500, 1492
0.06647539883852005, 0.04346233606338501, 0.49346843361854553, 0.0, 9.893129348754883, 5.404580116271973, 0.5114504098892212, 992, 1508, 1504, 1492
0.0674520805478096, 0.04102063179016113, 0.5090953707695007, 0.0, 10.641221046447754, 6.267175674438477, 0.8167939186096191, 992, 1504, 1504, 1492
0.07306800037622452, 0.04541569948196411, 0.4959101378917694, 0.0, 11.816793441772461, 7.496183395385742, 1.7938930988311768, 992, 1504, 1504, 1492
0.06671956926584244, 0.050299108028411865, 0.4985960125923157, 0.0, 12.595419883728027, 7.893129825592041, 2.0458016395568848, 992, 1504, 1504, 1492
0.06671956926584244, 0.05005493760108948, 0.48882919549942017, 0.0, 12.603053092956543, 7.671755790710449, 2.282442808151245, 992, 1504, 1504, 1492
0.06769625097513199, 0.047124892473220825, 0.4905383884906769, 0.0, 12.992366790771484, 7.839694499969482, 2.5877861976623535, 992, 1504, 1504, 1492
0.06452203541994095, 0.05200830101966858, 0.4995726943016052, 0.0, 12.90839672088623, 8.22137451171875, 2.85496187210083, 992, 1504, 1504, 1492
0.06720791012048721, 0.0437065064907074, 0.5068978071212769, 0.0, 13.007633209228516, 9.007633209228516, 3.1984732151031494, 992, 1504, 1504, 1496
0.05817360430955887, 0.03931143879890442, 0.49932852387428284, 0.0, 12.923664093017578, 9.22137451171875, 3.175572633743286, 992, 1504, 1500, 1496
0.061836160719394684, 0.038823097944259644, 0.49688681960105896, 0.0, 12.931297302246094, 10.114503860473633, 3.244274854660034, 992, 1504, 1500, 1496
