# ax ay az T gx gy gz throttle roll pitch yaw
204.0, 0.0, 8204.0, -2576.0, -7.128000259399414, -8.259002685546875, 18.378997802734375, 1004, 1504, 1500, 1496
152.0, 28.0, 8228.0, -2576.0, -17.128000259399414, 9.740997314453125, -20.621002197265625, 1004, 1504, 1500, 1496
296.0, 0.0, 8300.0, -2560.0, -16.128000259399414, 6.740997314453125, -9.621002197265625, 1004, 1504, 1500, 1496
244.0, -16.0, 8184.0, -2592.0, -17.128000259399414, 3.740997314453125, 38.378997802734375, 1004, 1504, 1500, 1496
260.0, -24.0, 8252.0, -2576.0, -25.128000259399414, 3.740997314453125, 11.378997802734375, 1004, 1504, 1500, 1492
212.0, 0.0, 8292.0, -2576.0, -16.128000259399414, -3.259002685546875, -9.621002197265625, 992, 1504, 1500, 1492
296.0, 8.0, 8276.0, -2576.0, 10.871999740600586, -7.259002685546875, 11.378997802734375, 992, 1504, 1500, 1492
320.0, -72.0, 8192.0, -2560.0, -6.128000259399414, -1.259002685546875, 9.378997802734375, 992, 1504, 1500, 1492
164.0, 52.0, 8140.0, -2576.0, 4.871999740600586, -12.259002685546875, 9.378997802734375, 992, 1504, 1500, 1492
164.0, -68.0, 8280.0, -2576.0, -5.128000259399414, -9.259002685546875, -22.621002197265625, 992, 1504, 1500, 1488
276.0, 16.0, 8252.0, -2576.0, 16.871999740600586, -16.259002685546875, -3.621002197265625, 992, 1504, 1500, 1488
272.0, -64.0, 8228.0, -2528.0, 11.871999740600586, 10.740997314453125, 2.378997802734375, 992, 1504, 1500, 1488
136.0, -100.0, 8332.0, -2560.0, -9.128000259399414, 7.740997314453125, -23.621002197265625, 992, 1504, 1500, 1488
192.0, 0.0, 8112.0, -2576.0, 6.871999740600586, -14.259002685546875, 31.378997802734375, 992, 1504, 1500, 1488
236.0, -4.0, 8292.0, -2576.0, -5.128000259399414, -38.259002685546875, -5.621002197265625, 992, 1504, 1500, 1488
232.0, -84.0, 8376.0, -2560.0, -3.128000259399414, -19.259002685546875, 30.378997802734375, 992, 1504, 1500, 1488
224.0, 48.0, 8204.0, -2560.0, 12.871999740600586, -2.259002685546875, 7.378997802734375, 992, 1504, 1500, 1488
220.0, -64.0, 8148.0, -2576.0, -10.128000259399414, -8.259002685546875, -3.621002197265625, 992, 1504, 1500, 1488
324.0, 68.0, 8256.0, -2576.0, 8.871999740600586, -2.259002685546875, 9.378997802734375, 992, 1504, 1500, 1488
212.0, 4.0, 8128.0, -2560.0, -11.128000259399414, 2.740997314453125, -6.621002197265625, 1000, 1504, 1500, 1484
280.0, 0.0, 8256.0, -2592.0, -20.128000259399414, 10.740997314453125, -10.621002197265625, 1000, 1496, 1500, 1484
304.0, 4.0, 8152.0, -2576.0, -3.128000259399414, -11.259002685546875, 0.378997802734375, 1000, 1496, 1500, 1484
124.0, -4.0, 8232.0, -2576.0, 11.871999740600586, -2.259002685546875, -20.621002197265625, 1000, 1496, 1500, 1484
240.0, -32.0, 8236.0, -2544.0, -9.128000259399414, -19.259002685546875, -8.621002197265625, 1000, 1496, 1500, 1484
176.0, 12.0, 8204.0, -2592.0, -10.128000259399414, 5.740997314453125, -1.621002197265625, 992, 1496, 1500, 1484
252.0, -44.0, 8392.0, -2576.0, 21.871999740600586, -10.259002685546875, -1.621002197265625, 992, 1504, 1500, 1484
212.0, -32.0, 8320.0, -2576.0, 22.871999740600586, -19.259002685546875, -15.621002197265625, 992, 1504, 1500, 1484
212.0, 28.0, 8312.0, -2592.0, 3.871999740600586, -10.259002685546875, -0.621002197265625, 992, 1504, 1500, 1484
164.0, 68.0, 8168.0, -2592.0, -25.128000259399414, -8.259002685546875, 8.378997802734375, 992, 1504, 1500, 1484
232.0, -80.0, 8272.0, -2576.0, 13.871999740600586, -20.259002685546875, 8.378997802734375, 996, 1504, 1500, 1484
240.0, 16.0, 8220.0, -2576.0, -0.12800025939941406, 14.740997314453125, 4.378997802734375, 996, 1504, 1500, 1484
244.0, 60.0, 8116.0, -2576.0, -7.128000259399414, 22.740997314453125, -23.621002197265625, 996, 1504, 1500, 1484
212.0, -56.0, 8208.0, -2592.0, 9.871999740600586, -8.259002685546875, -4.621002197265625, 996, 1504, 1500, 1484
220.0, 0.0, 8188.0, -2592.0, -17.128000259399414, -15.259002685546875, -20.621002197265625, 996, 1504, 1500, 1484
252.0, -36.0, 8212.0, -2576.0, -16.128000259399414, 2.740997314453125, -14.621002197265625, 992, 1504, 1500, 1488
188.0, -40.0, 8344.0, -2576.0, -1.128000259399414, 2.740997314453125, 1.378997802734375, 992, 1504, 1500, 1488
248.0, 4.0, 8156.0, -2592.0, -19.128000259399414, -9.259002685546875, 7.378997802734375, 992, 1504, 1500, 1488
132.0, -40.0, 8180.0, -2560.0, 32.87200164794922, -9.259002685546875, -7.621002197265625, 992, 1504, 1500, 1488
156.0, -24.0, 8168.0, -2576.0, -16.128000259399414, -6.259002685546875, 5.378997802734375, 992, 1504, 1500, 1488
276.0, -96.0, 8184.0, -2544.0, -6.128000259399414, 1.740997314453125, 24.378997802734375, 992, 1504, 1500, 1492
204.0, 0.0, 8284.0, -2576.0, -5.128000259399414, -20.259002685546875, 14.378997802734375, 992, 1504, 1500, 1492
176.0, -32.0, 8200.0, -2560.0, 3.871999740600586, -21.259002685546875, 5.378997802734375, 992, 1504, 1500, 1492
288.0, 20.0, 8400.0, -2576.0, 0.8719997406005859, -6.259002685546875, 7.378997802734375, 992, 1504, 1500, 1492
172.0, -56.0, 8320.0, -2576.0, 2.871999740600586, -2.259002685546875, 24.378997802734375, 992, 1504, 1500, 1488
156.0, 48.0, 8296.0, -2560.0, -11.128000259399414, -23.259002685546875, -8.621002197265625, 996, 1504, 1500, 1488
232.0, -4.0, 8224.0, -2592.0, 18.871999740600586, 8.740997314453125, 19.378997802734375, 996, 1504, 1500, 1488
296.0, -12.0, 8280.0, -2576.0, -18.128000259399414, -3.259002685546875, 7.378997802734375, 996, 1504, 1500, 1488
216.0, 20.0, 8020.0, -2576.0, -8.128000259399414, 23.740997314453125, -7.621002197265625, 996, 1504, 1500, 1488
168.0, -64.0, 8228.0, -2592.0, 1.871999740600586, 16.740997314453125, -17.621002197265625, 996, 1504, 1500, 1496
240.0, 48.0, 8368.0, -2592.0, 0.8719997406005859, -14.259002685546875, -3.621002197265625, 996, 1504, 1492, 1496
224.0, 8.0, 8280.0, -2592.0, -0.12800025939941406, 14.740997314453125, -13.621002197265625, 996, 1504, 1492, 1496
208.0, -24.0, 8224.0, -2608.0, 7.871999740600586, -4.259002685546875, 33.378997802734375, 996, 1504, 1492, 1496
232.0, -40.0, 8224.0, -2576.0, 0.8719997406005859, -24.259002685546875, -3.621002197265625, 996, 1504, 1492, 1496
216.0, -20.0, 8240.0, -2560.0, -2.128000259399414, -17.259002685546875, -12.621002197265625, 996, 1504, 1492, 1488
204.0, -12.0, 8224.0, -2592.0, -15.128000259399414, 20.740997314453125, -33.621002197265625, 992, 1504, 1504, 1488
280.0, -60.0, 8228.0, -2576.0, 2.871999740600586, -22.259002685546875, 27.378997802734375, 992, 1504, 1504, 1488
260.0, 36.0, 8200.0, -2576.0, -21.128000259399414, -8.259002685546875, 4.378997802734375, 992, 1504, 1504, 1488
168.0, 32.0, 8240.0, -2576.0, 3.871999740600586, -24.259002685546875, -3.621002197265625, 992, 1504, 1504, 1488
276.0, -24.0, 8232.0, -2560.0, 12.871999740600586, -20.259002685546875, -17.621002197265625, 992, 1504, 1504, 1496
292.0, 20.0, 8344.0, -2576.0, 12.871999740600586, 13.740997314453125, -5.621002197265625, 992, 1504, 1496, 1496
204.0, 60.0, 8244.0, -2576.0, -2.128000259399414, -1.259002685546875, 8.378997802734375, 992, 1504, 1496, 1496
168.0, 8.0, 8268.0, -2624.0, -5.128000259399414, 23.740997314453125, -3.621002197265625, 992, 1504, 1496, 1496
188.0, -40.0, 8164.0, -2560.0, -5.128000259399414, -12.259002685546875, 28.378997802734375, 992, 1504, 1496, 1496
172.0, 8.0, 8272.0, -2576.0, 4.871999740600586, 15.740997314453125, 8.378997802734375, 992, 1504, 1496, 1492
184.0, 16.0, 8184.0, -2608.0, 16.871999740600586, 10.740997314453125, 13.378997802734375, 988, 1504, 1504, 1492
260.0, 88.0, 8372.0, -2560.0, 21.871999740600586, -19.259002685546875, -15.621002197265625, 988, 1504, 1504, 1492
168.0, -56.0, 8228.0, -2560.0, -17.128000259399414, 11.740997314453125, 25.378997802734375, 988, 1504, 1504, 1492
228.0, 24.0, 8428.0, -2544.0, -17.128000259399414, -14.259002685546875, -21.621002197265625, 988, 1504, 1504, 1492
304.0, 36.0, 8132.0, -2576.0, 0.8719997406005859, -15.259002685546875, 4.378997802734375, 988, 1504, 1496, 1496
268.0, -32.0, 8288.0, -2592.0, -17.128000259399414, 12.740997314453125, -26.621002197265625, 996, 1500, 1496, 1496
260.0, 0.0, 8252.0, -2560.0, -28.128000259399414, -3.259002685546875, 3.378997802734375, 996, 1500, 1496, 1496
240.0, -40.0, 8268.0, -2576.0, -3.128000259399414, 13.740997314453125, -14.621002197265625, 996, 1500, 1496, 1496
128.0, -60.0, 8100.0, -2576.0, 8.871999740600586, 31.740997314453125, 16.378997802734375, 996, 1500, 1496, 1496
208.0, 0.0, 8328.0, -2576.0, -9.128000259399414, -7.259002685546875, 18.378997802734375, 996, 1500, 1504, 1488
108.0, -36.0, 8236.0, -2592.0, -4.128000259399414, -19.259002685546875, 5.378997802734375, 992, 1504, 1504, 1488
296.0, -64.0, 8220.0, -2576.0, -15.128000259399414, 21.740997314453125, -29.621002197265625, 992, 1504, 1504, 1488
208.0, -112.0, 8156.0, -2576.0, 1.871999740600586, 8.740997314453125, -24.621002197265625, 992, 1504, 1504, 1488
228.0, -76.0, 8288.0, -2576.0, 3.871999740600586, 1.740997314453125, 16.378997802734375, 992, 1504, 1504, 1488
212.0, -24.0, 8264.0, -2560.0, 12.871999740600586, -11.259002685546875, -6.621002197265625, 992, 1504, 1500, 1492
236.0, -20.0, 8136.0, -2592.0, 11.871999740600586, 0.740997314453125, -16.621002197265625, 996, 1504, 1500, 1492
176.0, 12.0, 8248.0, -2576.0, 2.871999740600586, -10.259002685546875, -0.621002197265625, 996, 1504, 1500, 1492
184.0, -32.0, 8132.0, -2576.0, 7.871999740600586, -1.259002685546875, 0.378997802734375, 996, 1504, 1500, 1492
184.0, 36.0, 8228.0, -2560.0, -0.12800025939941406, 3.740997314453125, 14.378997802734375, 996, 1504, 1500, 1492
292.0, 36.0, 8008.0, -2560.0, -8.128000259399414, -17.259002685546875, -6.621002197265625, 1000, 1504, 1504, 1492
224.0, -40.0, 8232.0, -2576.0, 10.871999740600586, 25.740997314453125, 1.378997802734375, 1000, 1496, 1504, 1492
216.0, 28.0, 8256.0, -2576.0, -9.128000259399414, -10.259002685546875, -20.621002197265625, 1000, 1496, 1504, 1492
252.0, 48.0, 8236.0, -2592.0, 2.871999740600586, 1.740997314453125, 1.378997802734375, 1000, 1496, 1504, 1492
220.0, -68.0, 8192.0, -2560.0, 28.871999740600586, -5.259002685546875, -6.621002197265625, 1000, 1496, 1504, 1492
204.0, 16.0, 8152.0, -2576.0, -17.128000259399414, -4.259002685546875, 9.378997802734375, 992, 1496, 1504, 1492
248.0, 8.0, 8256.0, -2576.0, -18.128000259399414, 16.740997314453125, 2.378997802734375, 992, 1504, 1504, 1492
156.0, -28.0, 8344.0, -2608.0, -3.128000259399414, -6.259002685546875, 0.378997802734375, 992, 1504, 1504, 1492
260.0, 4.0, 8272.0, -2592.0, 0.8719997406005859, -13.259002685546875, -10.621002197265625, 992, 1504, 1504, 1492
192.0, 8.0, 8164.0, -2576.0, -27.128000259399414, 17.740997314453125, 2.378997802734375, 992, 1504, 1504, 1492
264.0, -80.0, 8180.0, -2544.0, 25.871999740600586, -18.259002685546875, 5.378997802734375, 992, 1504, 1500, 1492
236.0, -28.0, 8304.0, -2560.0, -10.128000259399414, -23.259002685546875, 33.378997802734375, 992, 1504, 1500, 1492
184.0, 36.0, 8088.0, -2592.0, 8.871999740600586, 4.740997314453125, 6.378997802734375, 992, 1504, 1500, 1492
136.0, -12.0, 8296.0, -2592.0, 8.871999740600586, 14.740997314453125, -25.621002197265625, 992, 1504, 1500, 1492
276.0, -56.0, 8372.0, -2576.0, -11.128000259399414, 1.740997314453125, -14.621002197265625, 992, 1504, 1500, 1492
376.0, -4.0, 8344.0, -2576.0, 6.871999740600586, 5.740997314453125, -2.621002197265625, 996, 1504, 1500, 1496
288.0, 12.0, 8056.0, -2592.0, -7.128000259399414, 0.740997314453125, 6.378997802734375, 996, 1500, 1500, 1496
244.0, -40.0, 8140.0, -2592.0, -8.128000259399414, -11.259002685546875, 3.378997802734375, 996, 1500, 1500, 1496
268.0, 4.0, 8420.0, -2544.0, -3.128000259399414, -1.259002685546875, -8.621002197265625, 996, 1500, 1500, 1496
280.0, -24.0, 8136.0, -2576.0, -2.128000259399414, -9.259002685546875, 5.378997802734375, 996, 1500, 1500, 1496
276.0, 0.0, 8156.0, -2592.0, 3.871999740600586, 6.740997314453125, 2.378997802734375, 992, 1500, 1500, 1496
164.0, -132.0, 8172.0, -2592.0, -2.128000259399414, -18.259002685546875, 16.378997802734375, 992, 1504, 1500, 1496
268.0, -40.0, 8312.0, -2544.0, -6.128000259399414, 12.740997314453125, -9.621002197265625, 992, 1504, 1500, 1496
188.0, -32.0, 8480.0, -2544.0, -4.128000259399414, 2.740997314453125, -30.621002197265625, 992, 1504, 1500, 1496
256.0, -36.0, 8304.0, -2608.0, 7.871999740600586, -20.259002685546875, -22.621002197265625, 992, 1504, 1500, 1496
216.0, -4.0, 8192.0, -2592.0, -14.128000259399414, 5.740997314453125, 12.378997802734375, 992, 1504, 1500, 1496
316.0, 20.0, 8336.0, -2576.0, 2.871999740600586, -4.259002685546875, -2.621002197265625, 992, 1504, 1500, 1496
156.0, -100.0, 8276.0, -2576.0, 7.871999740600586, -5.259002685546875, -3.621002197265625, 992, 1504, 1500, 1496
204.0, -100.0, 8208.0, -2592.0, -16.128000259399414, -17.259002685546875, -6.621002197265625, 992, 1504, 1500, 1496
164.0, -24.0, 8172.0, -2560.0, 3.871999740600586, -5.259002685546875, 11.378997802734375, 992, 1504, 1500, 1496
272.0, -24.0, 8236.0, -2608.0, 3.871999740600586, 7.740997314453125, -2.621002197265625, 992, 1504, 1500, 1496
260.0, -48.0, 8292.0, -2576.0, 8.871999740600586, 8.740997314453125, 25.378997802734375, 992, 1504, 1500, 1496
268.0, 4.0, 8244.0, -2576.0, 4.871999740600586, -12.259002685546875, -10.621002197265625, 992, 1504, 1500, 1496
256.0, -24.0, 8164.0, -2560.0, -11.128000259399414, 15.740997314453125, 4.378997802734375, 992, 1504, 1500, 1496
212.0, 88.0, 8272.0, -2592.0, -7.128000259399414, 14.740997314453125, 0.378997802734375, 992, 1504, 1500, 1504
156.0, 56.0, 8292.0, -2576.0, -0.12800025939941406, -6.259002685546875, 11.378997802734375, 992, 1504, 1492, 1504
236.0, -88.0, 8144.0, -2576.0, 6.871999740600586, -27.259002685546875, 12.378997802734375, 992, 1504, 1492, 1504
216.0, -8.0, 8228.0, -2560.0, 12.871999740600586, -4.259002685546875, 7.378997802734375, 992, 1504, 1492, 1504
352.0, 32.0, 8212.0, -2592.0, -5.128000259399414, 3.740997314453125, -0.621002197265625, 992, 1504, 1492, 1504
252.0, -68.0, 8340.0, -2608.0, -3.128000259399414, -14.259002685546875, -13.621002197265625, 992, 1504, 1492, 1500
156.0, 84.0, 8336.0, -2576.0, 0.8719997406005859, -14.259002685546875, -8.621002197265625, 992, 1504, 1496, 1500
224.0, -76.0, 8120.0, -2544.0, -2.128000259399414, -7.259002685546875, -6.621002197265625, 992, 1504, 1496, 1500
368.0, 28.0, 8192.0, -2560.0, -14.128000259399414, 9.740997314453125, 3.378997802734375, 992, 1504, 1496, 1500
244.0, 4.0, 8332.0, -2576.0, -19.128000259399414, -0.259002685546875, 2.378997802734375, 992, 1504, 1496, 1500
176.0, -40.0, 8284.0, -2576.0, 6.871999740600586, 20.740997314453125, 9.378997802734375, 992, 1504, 1496, 1496
268.0, -48.0, 8356.0, -2528.0, 6.871999740600586, -25.259002685546875, -23.621002197265625, 992, 1504, 1500, 1496
228.0, -56.0, 8212.0, -2592.0, -10.128000259399414, -8.259002685546875, -15.621002197265625, 992, 1504, 1500, 1496
168.0, -12.0, 8148.0, -2576.0, -8.128000259399414, -11.259002685546875, 18.378997802734375, 992, 1504, 1500, 1496
284.0, 0.0, 8332.0, -2608.0, -8.128000259399414, 6.740997314453125, -13.621002197265625, 992, 1504, 1500, 1496
128.0, 4.0, 8252.0, -2560.0, 17.871999740600586, -8.259002685546875, -25.621002197265625, 992, 1504, 1500, 1496
320.0, -52.0, 8172.0, -2560.0, 5.871999740600586, -1.259002685546875, 5.378997802734375, 992, 1504, 1500, 1496
160.0, -4.0, 8148.0, -2528.0, 16.871999740600586, -27.259002685546875, 39.378997802734375, 992, 1504, 1500, 1496
248.0, 40.0, 8208.0, -2576.0, 14.871999740600586, 2.740997314453125, 14.378997802734375, 992, 1504, 1500, 1496
176.0, 12.0, 8196.0, -2576.0, -28.128000259399414, -4.259002685546875, 3.378997802734375, 992, 1504, 1500, 1496
284.0, -24.0, 8276.0, -2592.0, 8.871999740600586, -9.259002685546875, -1.621002197265625, 992, 1504, 1500, 1496
224.0, -68.0, 8360.0, -2560.0, -14.128000259399414, -5.259002685546875, -24.621002197265625, 992, 1504, 1500, 1496
216.0, 16.0, 8228.0, -2576.0, -7.128000259399414, 12.740997314453125, 15.378997802734375, 992, 1504, 1500, 1496
300.0, 12.0, 8224.0, -2576.0, 5.871999740600586, -13.259002685546875, 18.378997802734375, 992, 1504, 1500, 1496
168.0, -36.0, 8136.0, -2576.0, 16.871999740600586, -17.259002685546875, 25.378997802734375, 992, 1504, 1500, 1496
124.0, -76.0, 8412.0, -2624.0, -25.128000259399414, -9.259002685546875, -12.621002197265625, 992, 1504, 1504, 1496
216.0, 28.0, 8328.0, -2608.0, -6.128000259399414, 19.740997314453125, -24.621002197265625, 988, 1504, 1504, 1496
196.0, 24.0, 8216.0, -2576.0, 3.871999740600586, -0.259002685546875, 6.378997802734375, 988, 1504, 1504, 1496
224.0, -44.0, 8248.0, -2560.0, -12.128000259399414, 25.740997314453125, -10.621002197265625, 988, 1504, 1504, 1496
288.0, -64.0, 8308.0, -2592.0, -23.128000259399414, -11.259002685546875, 13.378997802734375, 988, 1504, 1504, 1496
240.0, 12.0, 8272.0, -2576.0, 7.871999740600586, 7.740997314453125, -16.621002197265625, 988, 1504, 1500, 1496
284.0, 20.0, 8320.0, -2576.0, -13.128000259399414, -7.259002685546875, -10.621002197265625, 992, 1504, 1500, 1496
296.0, -8.0, 8272.0, -2592.0, 2.871999740600586, -2.259002685546875, -9.621002197265625, 992, 1504, 1500, 1496
176.0, 8.0, 8292.0, -2560.0, -3.128000259399414, 2.740997314453125, 5.378997802734375, 992, 1504, 1500, 1496
140.0, 36.0, 8136.0, -2576.0, 1.871999740600586, -14.259002685546875, 6.378997802734375, 992, 1504, 1500, 1496
296.0, -48.0, 8232.0, -2576.0, -4.128000259399414, -13.259002685546875, 5.378997802734375, 992, 1504, 1500, 1496
220.0, -24.0, 8332.0, -2560.0, 37.87200164794922, 3.740997314453125, -28.621002197265625, 992, 1504, 1500, 1496
168.0, -28.0, 8272.0, -2560.0, -3.128000259399414, -25.259002685546875, -18.621002197265625, 992, 1504, 1500, 1496
216.0, 32.0, 8176.0, -2560.0, -14.128000259399414, 6.740997314453125, -8.621002197265625, 992, 1504, 1500, 1496
172.0, -56.0, 8200.0, -2576.0, -5.128000259399414, 7.740997314453125, 4.378997802734375, 992, 1504, 1500, 1496
264.0, -32.0, 8292.0, -2576.0, -6.128000259399414, -15.259002685546875, 6.378997802734375, 992, 1504, 1500, 1496
276.0, -4.0, 8320.0, -2528.0, 0.8719997406005859, 7.740997314453125, -10.621002197265625, 992, 1504, 1500, 1496
212.0, -88.0, 8144.0, -2560.0, -4.128000259399414, -10.259002685546875, -13.621002197265625, 992, 1504, 1500, 1496
172.0, -36.0, 8244.0, -2544.0, -23.128000259399414, -0.259002685546875, -0.621002197265625, 992, 1504, 1500, 1496
228.0, -60.0, 8156.0, -2576.0, -4.128000259399414, -13.259002685546875, 15.378997802734375, 992, 1504, 1500, 1496
240.0, -32.0, 8260.0, -2592.0, -9.128000259399414, -5.259002685546875, -4.621002197265625, 992, 1504, 1500, 1496
224.0, 4.0, 8404.0, -2592.0, 20.871999740600586, -2.259002685546875, -17.621002197265625, 992, 1504, 1500, 1496
244.0, -16.0, 8280.0, -2576.0, 0.8719997406005859, -31.259002685546875, -13.621002197265625, 992, 1504, 1500, 1496
264.0, 12.0, 8368.0, -2576.0, 8.871999740600586, 22.740997314453125, -14.621002197265625, 992, 1504, 1500, 1496
240.0, 40.0, 8224.0, -2592.0, -14.128000259399414, 4.740997314453125, -4.621002197265625, 992, 1504, 1500, 1496
172.0, -8.0, 8252.0, -2560.0, -1.128000259399414, 10.740997314453125, 25.378997802734375, 992, 1504, 1500, 1496
280.0, -8.0, 8216.0, -2608.0, -0.12800025939941406, -25.259002685546875, -19.621002197265625, 992, 1504, 1500, 1496
240.0, 100.0, 8172.0, -2608.0, 14.871999740600586, 8.740997314453125, 11.378997802734375, 992, 1504, 1500, 1496
272.0, -164.0, 8320.0, -2560.0, 18.871999740600586, 0.740997314453125, -22.621002197265625, 992, 1504, 1500, 1496
296.0, 40.0, 8212.0, -2560.0, 3.871999740600586, -15.259002685546875, 14.378997802734375, 992, 1504, 1500, 1496
220.0, 36.0, 8352.0, -2576.0, 8.871999740600586, -18.259002685546875, -15.621002197265625, 996, 1504, 1500, 1496
220.0, 12.0, 8292.0, -2576.0, 5.871999740600586, 12.740997314453125, 16.378997802734375, 996, 1504, 1500, 1496
212.0, -56.0, 8436.0, -2576.0, 11.871999740600586, 0.740997314453125, 10.378997802734375, 996, 1504, 1500, 1496
232.0, -8.0, 8180.0, -2560.0, -5.128000259399414, 2.740997314453125, -10.621002197265625, 996, 1504, 1500, 1496
304.0, 4.0, 8336.0, -2576.0, 12.871999740600586, -14.259002685546875, 17.378997802734375, 996, 1504, 1500, 1496
172.0, -48.0, 8328.0, -2576.0, -10.128000259399414, 4.740997314453125, -9.621002197265625, 992, 1504, 1500, 1496
236.0, 12.0, 8272.0, -2592.0, -8.128000259399414, -6.259002685546875, 18.378997802734375, 992, 1504, 1500, 1496
188.0, 12.0, 8224.0, -2560.0, 4.871999740600586, -6.259002685546875, -17.621002197265625, 992, 1504, 1500, 1496
256.0, -56.0, 8224.0, -2576.0, -14.128000259399414, -1.259002685546875, 21.378997802734375, 992, 1504, 1500, 1496
208.0, 28.0, 8212.0, -2576.0, -1.128000259399414, 4.740997314453125, -17.621002197265625, 992, 1504, 1500, 1492
252.0, 76.0, 8388.0, -2544.0, -13.128000259399414, -2.259002685546875, -12.621002197265625, 992, 1512, 1500, 1492
176.0, -24.0, 8252.0, -2560.0, -9.128000259399414, -9.259002685546875, 28.378997802734375, 992, 1512, 1500, 1492
248.0, -8.0, 8056.0, -2576.0, -9.128000259399414, -1.259002685546875, -3.621002197265625, 992, 1512, 1500, 1492
176.0, 84.0, 8340.0, -2576.0, -5.128000259399414, 17.740997314453125, -12.621002197265625, 992, 1512, 1500, 1492
216.0, 40.0, 8168.0, -2592.0, 13.871999740600586, 11.740997314453125, -32.621002197265625, 992, 1512, 1500, 1492
256.0, -20.0, 8280.0, -2560.0, -7.128000259399414, 10.740997314453125, 7.378997802734375, 992, 1504, 1500, 1492
216.0, -84.0, 8084.0, -2560.0, 10.871999740600586, 15.740997314453125, 23.378997802734375, 992, 1504, 1500, 1492
208.0, 44.0, 8192.0, -2544.0, -2.128000259399414, 0.740997314453125, 20.378997802734375, 992, 1504, 1500, 1492
188.0, -44.0, 8172.0, -2576.0, -6.128000259399414, -13.259002685546875, 11.378997802734375, 992, 1504, 1500, 1492
304.0, -96.0, 8212.0, -2592.0, -8.128000259399414, -1.259002685546875, 7.378997802734375, 992, 1504, 1500, 1492
248.0, -100.0, 8180.0, -2592.0, -0.12800025939941406, 8.740997314453125, 8.378997802734375, 992, 1504, 1504, 1492
248.0, -8.0, 8044.0, -2576.0, 0.8719997406005859, 9.740997314453125, 37.378997802734375, 992, 1504, 1504, 1492
252.0, 16.0, 8320.0, -2608.0, -17.128000259399414, -0.259002685546875, -7.621002197265625, 992, 1504, 1504, 1492
236.0, -20.0, 8164.0, -2560.0, 2.871999740600586, 6.740997314453125, -13.621002197265625, 992, 1504, 1504, 1492
216.0, 32.0, 8140.0, -2560.0, 32.87200164794922, 3.740997314453125, 3.378997802734375, 992, 1504, 1504, 1496
184.0, -40.0, 8260.0, -2576.0, 18.871999740600586, 0.740997314453125, 15.378997802734375, 992, 1504, 1500, 1496
208.0, 28.0, 8144.0, -2576.0, -2.128000259399414, -13.259002685546875, 2.378997802734375, 992, 1504, 1500, 1496
216.0, -72.0, 8396.0, -2560.0, -9.128000259399414, 26.740997314453125, 7.378997802734375, 992, 1504, 1500, 1496
184.0, -24.0, 8236.0, -2592.0, -13.128000259399414, 2.740997314453125, -3.621002197265625, 992, 1504, 1500, 1496
196.0, 20.0, 8408.0, -2576.0, 17.871999740600586, -13.259002685546875, 3.378997802734375, 992, 1504, 1504, 1492
228.0, -12.0, 8352.0, -2576.0, 9.871999740600586, -6.259002685546875, -22.621002197265625, 992, 1504, 1504, 1492
260.0, 16.0, 8268.0, -2592.0, 17.871999740600586, 3.740997314453125, -5.621002197265625, 992, 1504, 1504, 1492
192.0, 12.0, 8160.0, -2560.0, 11.871999740600586, 10.740997314453125, 1.378997802734375, 992, 1504, 1504, 1492
240.0, -72.0, 8272.0, -2592.0, -27.128000259399414, -9.259002685546875, -27.621002197265625, 992, 1504, 1504, 1492
240.0, 60.0, 8112.0, -2576.0, 5.871999740600586, 18.740997314453125, -28.621002197265625, 992, 1504, 1508, 1496
236.0, 20.0, 8240.0, -2576.0, 0.8719997406005859, -25.259002685546875, 9.378997802734375, 984, 1504, 1508, 1496
316.0, -104.0, 8252.0, -2560.0, 11.871999740600586, -9.259002685546875, 12.378997802734375, 984, 1504, 1508, 1496
240.0, -72.0, 8204.0, -2560.0, 9.871999740600586, 15.740997314453125, 9.378997802734375, 984, 1504, 1508, 1496
208.0, -20.0, 8184.0, -2576.0, -12.128000259399414, -22.259002685546875, -5.621002197265625, 984, 1504, 1508, 1496
228.0, -60.0, 8448.0, -2576.0, 3.871999740600586, 6.740997314453125, -29.621002197265625, 984, 1504, 1500, 1496
228.0, -16.0, 8368.0, -2528.0, 12.871999740600586, 5.740997314453125, 6.378997802734375, 992, 1504, 1500, 1496
244.0, 12.0, 8272.0, -2560.0, 0.8719997406005859, 6.740997314453125, -5.621002197265625, 992, 1504, 1500, 1496
164.0, -40.0, 8384.0, -2544.0, 13.871999740600586, -30.259002685546875, 3.378997802734375, 992, 1504, 1500, 1496
224.0, -20.0, 8192.0, -2544.0, -1.128000259399414, 14.740997314453125, 3.378997802734375, 992, 1504, 1500, 1496
228.0, -32.0, 8164.0, -2592.0, -15.128000259399414, 13.740997314453125, 14.378997802734375, 988, 1504, 1504, 1500
212.0, -80.0, 8240.0, -2560.0, 5.871999740600586, 0.740997314453125, 10.378997802734375, 988, 1504, 1504, 1500
284.0, -64.0, 8436.0, -2576.0, -2.128000259399414, -16.259002685546875, 9.378997802734375, 988, 1504, 1504, 1500
304.0, 16.0, 8212.0, -2576.0, -11.128000259399414, -17.259002685546875, -12.621002197265625, 988, 1504, 1504, 1500
216.0, 8.0, 8288.0, -2592.0, -1.128000259399414, -8.259002685546875, 4.378997802734375, 988, 1504, 1504, 1500
264.0, -72.0, 8372.0, -2592.0, -4.128000259399414, -20.259002685546875, 11.378997802734375, 996, 1504, 1500, 1512
216.0, -24.0, 8164.0, -2544.0, 5.871999740600586, 13.740997314453125, -26.621002197265625, 996, 1504, 1500, 1512
160.0, 72.0, 8244.0, -2544.0, 8.871999740600586, 10.740997314453125, -7.621002197265625, 996, 1504, 1500, 1512
204.0, 32.0, 8072.0, -2544.0, -6.128000259399414, -12.259002685546875, 12.378997802734375, 996, 1504, 1500, 1512
280.0, -44.0, 8312.0, -2592.0, -3.128000259399414, 22.740997314453125, 1.378997802734375, 996, 1504, 1500, 1512
192.0, 52.0, 8320.0, -2576.0, -12.128000259399414, 27.740997314453125, 0.378997802734375, 992, 1504, 1504, 1524
252.0, -20.0, 8200.0, -2608.0, -6.128000259399414, 8.740997314453125, -20.621002197265625, 992, 1504, 1504, 1524
240.0, -24.0, 8212.0, -2592.0, -0.12800025939941406, 14.740997314453125, 1.378997802734375, 992, 1504, 1504, 1524
152.0, -4.0, 8212.0, -2560.0, 21.871999740600586, -2.259002685546875, -35.621002197265625, 992, 1504, 1504, 1524
268.0, 24.0, 8280.0, -2592.0, -16.128000259399414, 13.740997314453125, 10.378997802734375, 992, 1504, 1504, 1524
152.0, -12.0, 8236.0, -2576.0, -17.128000259399414, -5.259002685546875, -16.621002197265625, 1012, 1504, 1500, 1520
208.0, -84.0, 8288.0, -2544.0, -1.128000259399414, -9.259002685546875, 8.378997802734375, 1012, 1504, 1500, 1520
272.0, -8.0, 8260.0, -2592.0, -2.128000259399414, -16.259002685546875, -4.621002197265625, 1012, 1504, 1500, 1520
288.0, -60.0, 8364.0, -2592.0, -0.12800025939941406, 20.740997314453125, -8.621002197265625, 1012, 1504, 1500, 1520
284.0, -140.0, 8252.0, -2576.0, -3.128000259399414, -22.259002685546875, 8.378997802734375, 1012, 1504, 1500, 1520
240.0, -20.0, 8328.0, -2576.0, -11.128000259399414, -2.259002685546875, 0.378997802734375, 1032, 1504, 1504, 1524
188.0, 12.0, 8264.0, -2560.0, -8.128000259399414, -2.259002685546875, 8.378997802734375, 1032, 1504, 1504, 1524
296.0, -20.0, 8216.0, -2560.0, 11.871999740600586, 11.740997314453125, -0.621002197265625, 1032, 1504, 1504, 1524
236.0, -56.0, 8064.0, -2608.0, 1.871999740600586, 17.740997314453125, 10.378997802734375, 1032, 1504, 1504, 1524
244.0, -60.0, 8140.0, -2576.0, 10.871999740600586, 4.740997314453125, 20.378997802734375, 1032, 1504, 1504, 1520
292.0, -24.0, 8196.0, -2544.0, -3.128000259399414, -2.259002685546875, 23.378997802734375, 1064, 1504, 1500, 1520
264.0, -16.0, 8236.0, -2528.0, 8.871999740600586, 3.740997314453125, -4.621002197265625, 1064, 1504, 1500, 1520
204.0, -20.0, 8264.0, -2576.0, 1.871999740600586, 8.740997314453125, 2.378997802734375, 1064, 1504, 1500, 1520
228.0, -56.0, 8208.0, -2576.0, -3.128000259399414, -13.259002685546875, 14.378997802734375, 1064, 1504, 1500, 1520
172.0, -20.0, 8200.0, -2592.0, -7.128000259399414, -2.259002685546875, 14.378997802734375, 1064, 1504, 1500, 1512
208.0, 0.0, 8236.0, -2592.0, -15.128000259399414, 23.740997314453125, 8.378997802734375, 1092, 1504, 1500, 1512
200.0, -24.0, 8264.0, -2576.0, -4.128000259399414, -5.259002685546875, 23.378997802734375, 1092, 1504, 1500, 1512
176.0, -92.0, 8212.0, -2544.0, 9.871999740600586, -29.259002685546875, 7.378997802734375, 1092, 1504, 1500, 1512
320.0, 72.0, 8308.0, -2528.0, -16.128000259399414, 5.740997314453125, -4.621002197265625, 1092, 1504, 1500, 1512
164.0, 4.0, 8304.0, -2560.0, -3.128000259399414, 2.740997314453125, 14.378997802734375, 1092, 1504, 1500, 1516
224.0, -96.0, 8168.0, -2608.0, -0.12800025939941406, 2.740997314453125, 15.378997802734375, 1120, 1504, 1496, 1516
244.0, 12.0, 8196.0, -2576.0, 12.871999740600586, 5.740997314453125, -6.621002197265625, 1120, 1504, 1496, 1516
184.0, -12.0, 8224.0, -2560.0, 7.871999740600586, 3.740997314453125, 6.378997802734375, 1120, 1504, 1496, 1516
220.0, -24.0, 8176.0, -2560.0, 6.871999740600586, -2.259002685546875, 4.378997802734375, 1120, 1504, 1496, 1516
292.0, -20.0, 8272.0, -2576.0, -10.128000259399414, -2.259002685546875, 0.378997802734375, 1120, 1504, 1496, 1500
204.0, 0.0, 8100.0, -2576.0, 3.871999740600586, -40.259002685546875, 5.378997802734375, 1124, 1508, 1500, 1500
176.0, -36.0, 8356.0, -2544.0, -1.128000259399414, 23.740997314453125, -11.621002197265625, 1124, 1508, 1500, 1500
196.0, -8.0, 8136.0, -2592.0, -2.128000259399414, -19.259002685546875, 8.378997802734375, 1124, 1508, 1500, 1500
236.0, -40.0, 8160.0, -2592.0, -25.128000259399414, 15.740997314453125, -20.621002197265625, 1124, 1508, 1500, 1500
300.0, -4.0, 8256.0, -2576.0, -4.128000259399414, -24.259002685546875, -5.621002197265625, 1124, 1508, 1500, 1496
324.0, -80.0, 8176.0, -2576.0, -9.128000259399414, -16.259002685546875, 19.378997802734375, 1160, 1504, 1504, 1496
196.0, 8.0, 8244.0, -2624.0, -5.128000259399414, 1.740997314453125, 11.378997802734375, 1160, 1504, 1504, 1496
184.0, -4.0, 8108.0, -2560.0, -29.128000259399414, 7.740997314453125, -13.621002197265625, 1160, 1504, 1504, 1496
248.0, 12.0, 8248.0, -2544.0, -14.128000259399414, -25.259002685546875, 10.378997802734375, 1160, 1504, 1504, 1496
264.0, -20.0, 8164.0, -2544.0, -10.128000259399414, 12.740997314453125, -3.621002197265625, 1160, 1504, 1500, 1496
236.0, -4.0, 8212.0, -2560.0, 27.871999740600586, 2.740997314453125, 8.378997802734375, 1204, 1504, 1500, 1496
160.0, -64.0, 8212.0, -2592.0, 12.871999740600586, 8.740997314453125, 4.378997802734375, 1204, 1504, 1500, 1496
280.0, -28.0, 8172.0, -2576.0, 3.871999740600586, -2.259002685546875, -8.621002197265625, 1204, 1504, 1500, 1496
296.0, 16.0, 8300.0, -2576.0, 16.871999740600586, -17.259002685546875, -11.621002197265625, 1204, 1504, 1500, 1496
256.0, 36.0, 8312.0, -2592.0, -22.128000259399414, 13.740997314453125, 7.378997802734375, 1204, 1504, 1500, 1496
228.0, -36.0, 8252.0, -2592.0, 15.871999740600586, -10.259002685546875, 17.378997802734375, 1252, 1504, 1500, 1496
236.0, 8.0, 8328.0, -2608.0, 16.871999740600586, 10.740997314453125, -5.621002197265625, 1252, 1504, 1500, 1496
204.0, 0.0, 8188.0, -2576.0, 0.8719997406005859, 8.740997314453125, 15.378997802734375, 1252, 1504, 1500, 1496
188.0, -28.0, 8320.0, -2576.0, 25.871999740600586, 10.740997314453125, -10.621002197265625, 1252, 1504, 1500, 1496
196.0, 32.0, 8300.0, -2592.0, 11.871999740600586, 10.740997314453125, 4.378997802734375, 1252, 1504, 1500, 1500
172.0, -8.0, 8400.0, -2608.0, -7.128000259399414, -1.259002685546875, -10.621002197265625, 1296, 1504, 1500, 1500
220.0, -104.0, 8092.0, -2608.0, 0.8719997406005859, -0.259002685546875, 20.378997802734375, 1296, 1504, 1500, 1500
136.0, -116.0, 8160.0, -2576.0, -1.128000259399414, 7.740997314453125, -11.621002197265625, 1296, 1504, 1500, 1500
284.0, -4.0, 8268.0, -2560.0, -9.128000259399414, -35.259002685546875, -15.621002197265625, 1296, 1504, 1500, 1500
168.0, -92.0, 8232.0, -2560.0, -3.128000259399414, -19.259002685546875, -17.621002197265625, 1296, 1504, 1500, 1496
252.0, -8.0, 8240.0, -2544.0, -15.128000259399414, 8.740997314453125, -7.621002197265625, 1352, 1504, 1500, 1496
168.0, 56.0, 8264.0, -2576.0, -3.128000259399414, 5.740997314453125, 7.378997802734375, 1352, 1504, 1500, 1496
168.0, 20.0, 8256.0, -2592.0, -0.12800025939941406, 16.740997314453125, 7.378997802734375, 1352, 1504, 1500, 1496
248.0, -4.0, 8268.0, -2560.0, -10.128000259399414, 4.740997314453125, 12.378997802734375, 1352, 1504, 1500, 1496
268.0, 44.0, 8272.0, -2576.0, 14.871999740600586, -6.259002685546875, -7.621002197265625, 1376, 1504, 1500, 1496
236.0, 12.0, 8156.0, -2544.0, 0.8719997406005859, 13.740997314453125, 16.378997802734375, 1376, 1504, 1500, 1496
256.0, -80.0, 8256.0, -2592.0, 5.871999740600586, 4.740997314453125, 8.378997802734375, 1376, 1504, 1500, 1496
272.0, -40.0, 8192.0, -2560.0, -4.128000259399414, -12.259002685546875, -0.621002197265625, 1376, 1504, 1500, 1496
224.0, -48.0, 8272.0, -2576.0, -15.128000259399414, 4.740997314453125, 5.378997802734375, 1376, 1504, 1500, 1496
224.0, -48.0, 8288.0, -2608.0, 4.871999740600586, -2.259002685546875, -15.621002197265625, 1404, 1504, 1500, 1492
232.0, 8.0, 8124.0, -2576.0, 13.871999740600586, 17.740997314453125, 13.378997802734375, 1404, 1504, 1500, 1492
196.0, -16.0, 8248.0, -2592.0, -12.128000259399414, 0.740997314453125, 1.378997802734375, 1404, 1504, 1500, 1492
272.0, 0.0, 8112.0, -2576.0, -23.128000259399414, 16.740997314453125, -0.621002197265625, 1404, 1504, 1500, 1492
264.0, -64.0, 8224.0, -2576.0, -8.128000259399414, 11.740997314453125, 0.378997802734375, 1404, 1504, 1500, 1492
296.0, 20.0, 8376.0, -2592.0, 2.871999740600586, 4.740997314453125, -7.621002197265625, 1400, 1504, 1504, 1496
212.0, -12.0, 8256.0, -2560.0, -12.128000259399414, -10.259002685546875, -23.621002197265625, 1400, 1504, 1504, 1496
280.0, 12.0, 8184.0, -2544.0, -31.128000259399414, 7.740997314453125, -4.621002197265625, 1400, 1504, 1504, 1496
276.0, -80.0, 8048.0, -2576.0, -2.128000259399414, -7.259002685546875, 2.378997802734375, 1400, 1504, 1504, 1496
196.0, 32.0, 8256.0, -2560.0, 4.871999740600586, 2.740997314453125, 5.378997802734375, 1400, 1504, 1504, 1496
200.0, 20.0, 8420.0, -2592.0, -7.128000259399414, -3.259002685546875, -7.621002197265625, 1436, 1504, 1504, 1496
244.0, -52.0, 8104.0, -2592.0, -0.12800025939941406, 0.740997314453125, -2.621002197265625, 1436, 1504, 1504, 1496
204.0, -32.0, 8200.0, -2576.0, -26.128000259399414, -14.259002685546875, -10.621002197265625, 1436, 1504, 1504, 1496
204.0, -72.0, 8324.0, -2608.0, -7.128000259399414, 8.740997314453125, 3.378997802734375, 1436, 1504, 1504, 1496
260.0, -92.0, 8212.0, -2560.0, 12.871999740600586, -4.259002685546875, 23.378997802734375, 1436, 1504, 1504, 1496
180.0, -100.0, 8188.0, -2592.0, -19.128000259399414, -2.259002685546875, -7.621002197265625, 1452, 1504, 1504, 1496
184.0, -48.0, 8200.0, -2576.0, -4.128000259399414, -5.259002685546875, -9.621002197265625, 1452, 1504, 1504, 1496
220.0, -72.0, 8356.0, -2576.0, -3.128000259399414, -4.259002685546875, 1.378997802734375, 1452, 1504, 1504, 1496
132.0, 12.0, 8288.0, -2576.0, 19.871999740600586, 16.740997314453125, -0.621002197265625, 1452, 1504, 1504, 1496
240.0, -40.0, 8164.0, -2560.0, -24.128000259399414, 18.740997314453125, -12.621002197265625, 1452, 1504, 1504, 1496
212.0, 20.0, 8276.0, -2576.0, 6.871999740600586, 1.740997314453125, 7.378997802734375, 1464, 1504, 1500, 1496
252.0, -84.0, 8212.0, -2576.0, 7.871999740600586, -25.259002685546875, 3.378997802734375, 1464, 1504, 1500, 1496
204.0, -36.0, 8140.0, -2560.0, 0.8719997406005859, 8.740997314453125, -8.621002197265625, 1464, 1504, 1500, 1496
268.0, -36.0, 8248.0, -2592.0, 2.871999740600586, 8.740997314453125, -28.621002197265625, 1464, 1504, 1500, 1496
268.0, 0.0, 8240.0, -2576.0, 3.871999740600586, -9.259002685546875, 18.378997802734375, 1464, 1504, 1500, 1496
196.0, -20.0, 8260.0, -2544.0, -10.128000259399414, -2.259002685546875, -13.621002197265625, 1460, 1504, 1504, 1496
220.0, -28.0, 8308.0, -2592.0, -14.128000259399414, 22.740997314453125, 3.378997802734375, 1460, 1504, 1504, 1496
280.0, 32.0, 8092.0, -2560.0, -0.12800025939941406, -7.259002685546875, -25.621002197265625, 1460, 1504, 1504, 1496
232.0, -40.0, 8116.0, -2576.0, 19.871999740600586, -11.259002685546875, -17.621002197265625, 1460, 1504, 1504, 1496
176.0, 16.0, 8272.0, -2544.0, -11.128000259399414, -7.259002685546875, -2.621002197265625, 1460, 1504, 1504, 1496
180.0, 88.0, 8176.0, -2592.0, -5.128000259399414, 14.740997314453125, 18.378997802734375, 1464, 1504, 1500, 1496
248.0, 76.0, 8372.0, -2560.0, -7.128000259399414, -18.259002685546875, 2.378997802734375, 1464, 1504, 1500, 1496
244.0, -8.0, 8320.0, -2560.0, 31.871999740600586, 22.740997314453125, 6.378997802734375, 1464, 1504, 1500, 1496
344.0, 24.0, 8232.0, -2544.0, -15.128000259399414, -4.259002685546875, -18.621002197265625, 1464, 1504, 1500, 1496
272.0, 36.0, 8340.0, -2576.0, -3.128000259399414, 12.740997314453125, 8.378997802734375, 1464, 1504, 1500, 1496
136.0, -72.0, 8264.0, -2560.0, 17.871999740600586, -5.259002685546875, 2.378997802734375, 1464, 1504, 1500, 1496
152.0, -48.0, 8212.0, -2560.0, -0.12800025939941406, -16.259002685546875, 8.378997802734375, 1464, 1504, 1500, 1496
292.0, 60.0, 8280.0, -2544.0, -24.128000259399414, 3.740997314453125, 5.378997802734375, 1464, 1504, 1500, 1496
276.0, -20.0, 8192.0, -2576.0, -0.12800025939941406, 2.740997314453125, -17.621002197265625, 1464, 1504, 1500, 1496
268.0, -36.0, 8352.0, -2592.0, -11.128000259399414, 15.740997314453125, -2.621002197265625, 1464, 1504, 1500, 1496
252.0, -4.0, 8352.0, -2560.0, 23.871999740600586, -6.259002685546875, 5.378997802734375, 1464, 1504, 1500, 1496
192.0, -16.0, 8156.0, -2576.0, -8.128000259399414, 0.740997314453125, 4.378997802734375, 1464, 1504, 1500, 1496
212.0, -8.0, 8188.0, -2576.0, 9.871999740600586, 1.740997314453125, -18.621002197265625, 1464, 1504, 1500, 1496
304.0, 44.0, 8236.0, -2560.0, -5.128000259399414, -5.259002685546875, -1.621002197265625, 1464, 1504, 1500, 1496
172.0, 0.0, 8172.0, -2560.0, 32.87200164794922, 11.740997314453125, 3.378997802734375, 1464, 1504, 1504, 1492
140.0, 0.0, 8316.0, -2576.0, -1.128000259399414, 16.740997314453125, -3.621002197265625, 1460, 1508, 1504, 1492
220.0, -12.0, 8216.0, -2544.0, -10.128000259399414, 4.740997314453125, 9.378997802734375, 1460, 1508, 1504, 1492
240.0, -12.0, 8348.0, -2560.0, 4.871999740600586, 26.740997314453125, -10.621002197265625, 1460, 1508, 1504, 1492
240.0, -8.0, 8284.0, -2592.0, -11.128000259399414, -5.259002685546875, 0.378997802734375, 1460, 1508, 1504, 1492
252.0, 4.0, 8352.0, -2576.0, -4.128000259399414, 16.740997314453125, -27.621002197265625, 1460, 1508, 1496, 1504
264.0, 52.0, 8384.0, -2576.0, -11.128000259399414, -8.259002685546875, 3.378997802734375, 1464, 1504, 1496, 1504
280.0, -32.0, 8240.0, -2576.0, -12.128000259399414, 25.740997314453125, -24.621002197265625, 1464, 1504, 1496, 1504
160.0, -24.0, 8220.0, -2560.0, -15.128000259399414, -10.259002685546875, 18.378997802734375, 1464, 1504, 1496, 1504
264.0, 32.0, 8004.0, -2576.0, 9.871999740600586, 4.740997314453125, -13.621002197265625, 1464, 1504, 1496, 1504
280.0, -84.0, 8180.0, -2608.0, 16.871999740600586, 1.740997314453125, 0.378997802734375, 1464, 1504, 1500, 1500
236.0, -84.0, 8308.0, -2560.0, 5.871999740600586, -5.259002685546875, 5.378997802734375, 1464, 1504, 1500, 1500
208.0, 20.0, 8208.0, -2560.0, 6.871999740600586, -3.259002685546875, 5.378997802734375, 1464, 1504, 1500, 1500
248.0, 0.0, 8140.0, -2576.0, 1.871999740600586, 13.740997314453125, 18.378997802734375, 1464, 1504, 1500, 1500
208.0, 32.0, 8204.0, -2576.0, 13.871999740600586, 4.740997314453125, -30.621002197265625, 1464, 1504, 1500, 1500
216.0, -92.0, 8116.0, -2592.0, -1.128000259399414, -20.259002685546875, 3.378997802734375, 1464, 1504, 1500, 1500
188.0, -24.0, 8132.0, -2592.0, -22.128000259399414, 14.740997314453125, 4.378997802734375, 1464, 1504, 1500, 1500
208.0, -64.0, 8264.0, -2544.0, 4.871999740600586, -10.259002685546875, 4.378997802734375, 1464, 1504, 1500, 1500
172.0, 64.0, 8256.0, -2576.0, -5.128000259399414, 6.740997314453125, 19.378997802734375, 1464, 1504, 1500, 1500
244.0, -56.0, 8140.0, -2592.0, 5.871999740600586, -0.259002685546875, 12.378997802734375, 1464, 1504, 1500, 1500
248.0, 20.0, 8328.0, -2592.0, -16.128000259399414, -11.259002685546875, -27.621002197265625, 1460, 1504, 1504, 1500
172.0, -32.0, 8236.0, -2576.0, -1.128000259399414, -6.259002685546875, 12.378997802734375, 1460, 1504, 1504, 1500
224.0, 8.0, 8340.0, -2608.0, 9.871999740600586, -16.259002685546875, 5.378997802734375, 1460, 1504, 1504, 1500
184.0, -4.0, 8148.0, -2576.0, -14.128000259399414, 18.740997314453125, 10.378997802734375, 1460, 1504, 1504, 1500
232.0, 36.0, 8356.0, -2592.0, 6.871999740600586, -3.259002685546875, -15.621002197265625, 1460, 1504, 1504, 1500
240.0, -88.0, 8344.0, -2576.0, -5.128000259399414, 5.740997314453125, 8.378997802734375, 1464, 1504, 1500, 1496
244.0, -24.0, 8236.0, -2576.0, 0.8719997406005859, -14.259002685546875, -1.621002197265625, 1464, 1504, 1500, 1496
244.0, 0.0, 8260.0, -2576.0, -19.128000259399414, 20.740997314453125, -8.621002197265625, 1464, 1504, 1500, 1496
132.0, 68.0, 8152.0, -2560.0, 26.871999740600586, -24.259002685546875, 8.378997802734375, 1464, 1504, 1500, 1496
260.0, 20.0, 8136.0, -2592.0, -3.128000259399414, 13.740997314453125, -0.621002197265625, 1464, 1504, 1500, 1496
260.0, 44.0, 8128.0, -2576.0, 12.871999740600586, -22.259002685546875, -10.621002197265625, 1464, 1504, 1500, 1496
160.0, -68.0, 8196.0, -2544.0, 8.871999740600586, -25.259002685546875, 32.378997802734375, 1464, 1504, 1500, 1496
220.0, 44.0, 8164.0, -2560.0, 2.871999740600586, 4.740997314453125, -2.621002197265625, 1464, 1504, 1500, 1496
180.0, -48.0, 8200.0, -2560.0, 19.871999740600586, -2.259002685546875, 12.378997802734375, 1464, 1504, 1500, 1496
144.0, 20.0, 8308.0, -2576.0, -17.128000259399414, -11.259002685546875, 10.378997802734375, 1464, 1504, 1500, 1496
204.0, 8.0, 8352.0, -2576.0, -4.128000259399414, -10.259002685546875, -14.621002197265625, 1464, 1504, 1500, 1496
196.0, 40.0, 8292.0, -2592.0, -6.128000259399414, -4.259002685546875, 1.378997802734375, 1464, 1504, 1500, 1496
192.0, 12.0, 8232.0, -2560.0, 23.871999740600586, 0.740997314453125, 14.378997802734375, 1464, 1504, 1500, 1496
128.0, 16.0, 8100.0, -2576.0, -8.128000259399414, -2.259002685546875, -3.621002197265625, 1464, 1504, 1500, 1496
188.0, -96.0, 8308.0, -2576.0, -25.128000259399414, -16.259002685546875, 14.378997802734375, 1464, 1504, 1500, 1496
268.0, 28.0, 8256.0, -2576.0, -15.128000259399414, -7.259002685546875, -26.621002197265625, 1468, 1504, 1500, 1496
272.0, -32.0, 8300.0, -2592.0, -21.128000259399414, -9.259002685546875, 1.378997802734375, 1468, 1500, 1500, 1496
204.0, -32.0, 8224.0, -2576.0, -9.128000259399414, 4.740997314453125, -11.621002197265625, 1468, 1500, 1500, 1496
200.0, -80.0, 8336.0, -2576.0, 33.87200164794922, 18.740997314453125, -14.621002197265625, 1468, 1500, 1500, 1496
288.0, 24.0, 8200.0, -2592.0, -27.128000259399414, -8.259002685546875, 32.378997802734375, 1468, 1500, 1500, 1496
268.0, -76.0, 8040.0, -2560.0, -5.128000259399414, 6.740997314453125, -7.621002197265625, 1464, 1496, 1508, 1496
264.0, -32.0, 8240.0, -2576.0, -11.128000259399414, -11.259002685546875, -24.621002197265625, 1464, 1496, 1508, 1496
340.0, 20.0, 8240.0, -2608.0, -13.128000259399414, -2.259002685546875, 13.378997802734375, 1464, 1496, 1508, 1496
200.0, -96.0, 8392.0, -2560.0, -0.12800025939941406, 15.740997314453125, -11.621002197265625, 1464, 1496, 1508, 1496
252.0, -88.0, 8288.0, -2592.0, -8.128000259399414, 7.740997314453125, 30.378997802734375, 1464, 1496, 1508, 1496
244.0, 16.0, 8316.0, -2576.0, -13.128000259399414, -9.259002685546875, 3.378997802734375, 1464, 1504, 1500, 1496
284.0, -140.0, 8360.0, -2608.0, -0.12800025939941406, -20.259002685546875, 14.378997802734375, 1464, 1504, 1500, 1496
268.0, -20.0, 8080.0, -2560.0, -28.128000259399414, 3.740997314453125, -14.621002197265625, 1464, 1504, 1500, 1496
232.0, 56.0, 8136.0, -2592.0, -21.128000259399414, -26.259002685546875, 1.378997802734375, 1464, 1504, 1500, 1496
304.0, -68.0, 8224.0, -2544.0, -5.128000259399414, 15.740997314453125, 17.378997802734375, 1464, 1504, 1500, 1496
292.0, -52.0, 8036.0, -2576.0, -12.128000259399414, 3.740997314453125, 13.378997802734375, 1464, 1504, 1500, 1496
260.0, -56.0, 8204.0, -2576.0, -14.128000259399414, 0.740997314453125, -4.621002197265625, 1464, 1504, 1500, 1496
152.0, -24.0, 8360.0, -2528.0, 13.871999740600586, -5.259002685546875, -5.621002197265625, 1464, 1504, 1500, 1496
224.0, 80.0, 8304.0, -2544.0, 0.8719997406005859, 5.740997314453125, 9.378997802734375, 1464, 1504, 1500, 1496
272.0, 28.0, 8192.0, -2544.0, 24.871999740600586, 7.740997314453125, 24.378997802734375, 1464, 1504, 1500, 1496
240.0, -44.0, 8308.0, -2560.0, -5.128000259399414, -0.259002685546875, 13.378997802734375, 1464, 1504, 1500, 1496
168.0, 36.0, 8360.0, -2560.0, -2.128000259399414, 0.740997314453125, -7.621002197265625, 1464, 1504, 1500, 1496
204.0, -24.0, 8244.0, -2592.0, 22.871999740600586, 1.740997314453125, -5.621002197265625, 1464, 1504, 1500, 1496
188.0, 20.0, 8160.0, -2576.0, 4.871999740600586, -20.259002685546875, 4.378997802734375, 1464, 1504, 1500, 1496
260.0, -84.0, 8272.0, -2592.0, 28.871999740600586, -2.259002685546875, 14.378997802734375, 1464, 1504, 1500, 1500
204.0, 4.0, 8200.0, -2592.0, -26.128000259399414, -15.259002685546875, -1.621002197265625, 1464, 1504, 1500, 1500
244.0, 24.0, 8184.0, -2560.0, -6.128000259399414, -5.259002685546875, 7.378997802734375, 1464, 1504, 1500, 1500
340.0, -56.0, 8276.0, -2576.0, -15.128000259399414, -5.259002685546875, -10.621002197265625, 1464, 1504, 1500, 1500
284.0, -24.0, 8144.0, -2576.0, -4.128000259399414, 2.740997314453125, -3.621002197265625, 1464, 1504, 1500, 1500
100.0, 84.0, 8148.0, -2528.0, -0.12800025939941406, 25.740997314453125, -10.621002197265625, 1464, 1504, 1500, 1496
208.0, 40.0, 8320.0, -2592.0, -14.128000259399414, 0.740997314453125, 8.378997802734375, 1464, 1504, 1500, 1496
204.0, 36.0, 8004.0, -2576.0, -9.128000259399414, 2.740997314453125, 17.378997802734375, 1464, 1504, 1500, 1496
216.0, 4.0, 8220.0, -2576.0, 12.871999740600586, 18.740997314453125, -15.621002197265625, 1464, 1504, 1500, 1496
228.0, 0.0, 8188.0, -2576.0, -0.12800025939941406, 12.740997314453125, 19.378997802734375, 1464, 1504, 1500, 1496
212.0, -20.0, 8184.0, -2592.0, 6.871999740600586, -15.259002685546875, -8.621002197265625, 1464, 1504, 1500, 1496
264.0, -36.0, 8320.0, -2576.0, -19.128000259399414, 1.740997314453125, 3.378997802734375, 1468, 1504, 1500, 1496
172.0, 40.0, 8196.0, -2576.0, -10.128000259399414, -14.259002685546875, 5.378997802734375, 1468, 1504, 1500, 1496
204.0, -64.0, 8280.0, -2592.0, -19.128000259399414, -6.259002685546875, 1.378997802734375, 1468, 1504, 1500, 1496
104.0, 16.0, 8180.0, -2560.0, -13.128000259399414, -11.259002685546875, -14.621002197265625, 1468, 1504, 1500, 1496
256.0, -44.0, 8392.0, -2544.0, -5.128000259399414, 3.740997314453125, -13.621002197265625, 1468, 1504, 1504, 1496
208.0, -20.0, 8380.0, -2576.0, 4.871999740600586, 8.740997314453125, 17.378997802734375, 1464, 1504, 1504, 1496
208.0, -20.0, 8336.0, -2560.0, -23.128000259399414, -0.259002685546875, 11.378997802734375, 1464, 1504, 1504, 1496
192.0, -60.0, 8312.0, -2592.0, 7.871999740600586, 13.740997314453125, -15.621002197265625, 1464, 1504, 1504, 1496
168.0, -96.0, 8292.0, -2576.0, 22.871999740600586, -4.259002685546875, -16.621002197265625, 1464, 1504, 1504, 1496
248.0, 16.0, 8092.0, -2544.0, -9.128000259399414, -11.259002685546875, 17.378997802734375, 1460, 1504, 1504, 1496
284.0, -4.0, 8208.0, -2576.0, 0.8719997406005859, 22.740997314453125, 3.378997802734375, 1460, 1504, 1504, 1496
272.0, 20.0, 8204.0, -2560.0, -4.128000259399414, -22.259002685546875, -4.621002197265625, 1460, 1504, 1504, 1496
320.0, -52.0, 8148.0, -2592.0, 13.871999740600586, -0.259002685546875, 6.378997802734375, 1460, 1504, 1504, 1496
164.0, -60.0, 8280.0, -2608.0, 5.871999740600586, 8.740997314453125, 4.378997802734375, 1460, 1504, 1504, 1496
220.0, -28.0, 8336.0, -2576.0, -2.128000259399414, -19.259002685546875, -34.621002197265625, 1464, 1504, 1500, 1500
148.0, -24.0, 8108.0, -2576.0, 0.8719997406005859, 0.740997314453125, 13.378997802734375, 1464, 1504, 1500, 1500
248.0, -24.0, 8164.0, -2560.0, -25.128000259399414, 6.740997314453125, 0.378997802734375, 1464, 1504, 1500, 1500
264.0, 12.0, 8404.0, -2608.0, 22.871999740600586, 7.740997314453125, -5.621002197265625, 1464, 1504, 1500, 1500
208.0, -44.0, 8236.0, -2576.0, 9.871999740600586, 6.740997314453125, -9.621002197265625, 1464, 1504, 1500, 1500
228.0, 52.0, 8340.0, -2592.0, -12.128000259399414, -3.259002685546875, -3.621002197265625, 1464, 1504, 1504, 1496
92.0, -80.0, 8108.0, -2560.0, -13.128000259399414, -18.259002685546875, 7.378997802734375, 1464, 1504, 1504, 1496
212.0, -44.0, 8344.0, -2608.0, -11.128000259399414, 8.740997314453125, 3.378997802734375, 1464, 1504, 1504, 1496
180.0, 12.0, 8212.0, -2576.0, -24.128000259399414, -1.259002685546875, -19.621002197265625, 1464, 1504, 1504, 1496
256.0, 48.0, 8324.0, -2560.0, -6.128000259399414, 22.740997314453125, -18.621002197265625, 1464, 1504, 1504, 1496
320.0, -36.0, 8340.0, -2560.0, -14.128000259399414, 22.740997314453125, -6.621002197265625, 1464, 1504, 1500, 1500
216.0, 0.0, 8336.0, -2576.0, 21.871999740600586, 20.740997314453125, 10.378997802734375, 1464, 1504, 1500, 1500
284.0, 16.0, 8264.0, -2576.0, -10.128000259399414, 2.740997314453125, -16.621002197265625, 1464, 1504, 1500, 1500
228.0, -36.0, 8284.0, -2560.0, -0.12800025939941406, 2.740997314453125, 14.378997802734375, 1464, 1504, 1500, 1500
236.0, -68.0, 8204.0, -2560.0, 10.871999740600586, 32.740997314453125, 3.378997802734375, 1464, 1504, 1500, 1500
244.0, 0.0, 8236.0, -2576.0, -4.128000259399414, 4.740997314453125, 1.378997802734375, 1464, 1504, 1500, 1500
264.0, -52.0, 8232.0, -2576.0, -11.128000259399414, 1.740997314453125, 7.378997802734375, 1464, 1504, 1500, 1500
228.0, -32.0, 8088.0, -2544.0, 6.871999740600586, 15.740997314453125, -6.621002197265625, 1464, 1504, 1500, 1500
256.0, -4.0, 8216.0, -2560.0, 12.871999740600586, 5.740997314453125, 10.378997802734375, 1464, 1504, 1500, 1500
208.0, -52.0, 8156.0, -2560.0, -4.128000259399414, -19.259002685546875, -2.621002197265625, 1464, 1504, 1500, 1500
204.0, -20.0, 8104.0, -2576.0, -11.128000259399414, 1.740997314453125, -13.621002197265625, 1460, 1504, 1504, 1500
228.0, -32.0, 8348.0, -2576.0, 9.871999740600586, 1.740997314453125, 10.378997802734375, 1460, 1504, 1504, 1500
232.0, 36.0, 8228.0, -2560.0, 16.871999740600586, 25.740997314453125, 12.378997802734375, 1460, 1504, 1504, 1500
168.0, 12.0, 8276.0, -2592.0, -5.128000259399414, -17.259002685546875, -6.621002197265625, 1460, 1504, 1504, 1500
288.0, -48.0, 8284.0, -2576.0, -9.128000259399414, -13.259002685546875, -26.621002197265625, 1460, 1504, 1504, 1496
264.0, -44.0, 8252.0, -2576.0, 29.871999740600586, -4.259002685546875, -17.621002197265625, 1460, 1504, 1504, 1496
244.0, -12.0, 8208.0, -2560.0, 27.871999740600586, -17.259002685546875, 33.378997802734375, 1460, 1504, 1504, 1496
260.0, 24.0, 8400.0, -2592.0, -0.12800025939941406, 7.740997314453125, 1.378997802734375, 1460, 1504, 1504, 1496
212.0, 4.0, 8236.0, -2576.0, 10.871999740600586, -0.259002685546875, 9.378997802734375, 1460, 1504, 1504, 1496
268.0, -72.0, 8268.0, -2576.0, 13.871999740600586, -4.259002685546875, 3.378997802734375, 1460, 1504, 1504, 1496
188.0, 0.0, 8292.0, -2592.0, -22.128000259399414, 21.740997314453125, -19.621002197265625, 1464, 1504, 1500, 1496
256.0, -12.0, 8260.0, -2560.0, 5.871999740600586, -7.259002685546875, -26.621002197265625, 1464, 1504, 1500, 1496
172.0, -100.0, 8252.0, -2576.0, -21.128000259399414, -9.259002685546875, -26.621002197265625, 1464, 1504, 1500, 1496
252.0, -64.0, 8192.0, -2576.0, 0.8719997406005859, 5.740997314453125, 31.378997802734375, 1464, 1504, 1500, 1496
292.0, -28.0, 8232.0, -2576.0, -3.128000259399414, -18.259002685546875, 6.378997802734375, 1464, 1504, 1500, 1496
344.0, -8.0, 8244.0, -2592.0, -2.128000259399414, 2.740997314453125, 9.378997802734375, 1460, 1504, 1508, 1496
292.0, 24.0, 8236.0, -2576.0, -7.128000259399414, -5.259002685546875, -42.621002197265625, 1460, 1504, 1508, 1496
208.0, 4.0, 8288.0, -2576.0, -14.128000259399414, -0.259002685546875, -7.621002197265625, 1460, 1504, 1508, 1496
248.0, -48.0, 8328.0, -2560.0, 0.8719997406005859, 6.740997314453125, 14.378997802734375, 1460, 1504, 1508, 1496
236.0, -52.0, 8200.0, -2592.0, -7.128000259399414, -18.259002685546875, 11.378997802734375, 1460, 1504, 1500, 1500
196.0, 44.0, 8268.0, -2576.0, -8.128000259399414, -6.259002685546875, 4.378997802734375, 1464, 1504, 1500, 1500
212.0, -12.0, 8212.0, -2608.0, -9.128000259399414, -1.259002685546875, -20.621002197265625, 1464, 1504, 1500, 1500
292.0, -8.0, 8160.0, -2576.0, -3.128000259399414, -2.259002685546875, 18.378997802734375, 1464, 1504, 1500, 1500
172.0, -96.0, 8420.0, -2560.0, 2.871999740600586, -7.259002685546875, -7.621002197265625, 1464, 1504, 1500, 1500
216.0, 4.0, 8100.0, -2560.0, 15.871999740600586, -9.259002685546875, -10.621002197265625, 1464, 1504, 1508, 1496
208.0, -32.0, 8328.0, -2576.0, -19.128000259399414, 3.740997314453125, 14.378997802734375, 1460, 1504, 1508, 1496
216.0, -32.0, 8256.0, -2576.0, 11.871999740600586, -28.259002685546875, -8.621002197265625, 1460, 1504, 1508, 1496
248.0, -12.0, 8032.0, -2592.0, -11.128000259399414, 6.740997314453125, -10.621002197265625, 1460, 1504, 1508, 1496
216.0, -60.0, 8320.0, -2592.0, -10.128000259399414, -2.259002685546875, 10.378997802734375, 1460, 1504, 1508, 1496
124.0, 52.0, 8228.0, -2544.0, 2.871999740600586, -10.259002685546875, 1.378997802734375, 1460, 1504, 1504, 1496
224.0, -80.0, 8208.0, -2576.0, -2.128000259399414, 5.740997314453125, -6.621002197265625, 1460, 1504, 1504, 1496
260.0, -84.0, 8264.0, -2576.0, -19.128000259399414, 0.740997314453125, -14.621002197265625, 1460, 1504, 1504, 1496
232.0, 24.0, 8192.0, -2592.0, 9.871999740600586, -12.259002685546875, -20.621002197265625, 1460, 1504, 1504, 1496
188.0, -64.0, 8256.0, -2544.0, -5.128000259399414, 15.740997314453125, 9.378997802734375, 1460, 1504, 1504, 1496
184.0, 52.0, 8188.0, -2576.0, -15.128000259399414, 6.740997314453125, 14.378997802734375, 1460, 1504, 1500, 1500
112.0, 0.0, 8188.0, -2592.0, 7.871999740600586, 2.740997314453125, 25.378997802734375, 1464, 1504, 1500, 1500
240.0, -80.0, 8292.0, -2592.0, -15.128000259399414, 0.740997314453125, 0.378997802734375, 1464, 1504, 1500, 1500
328.0, 12.0, 8292.0, -2576.0, 3.871999740600586, 11.740997314453125, -10.621002197265625, 1464, 1504, 1500, 1500
204.0, -8.0, 8236.0, -2576.0, 5.871999740600586, -16.259002685546875, -14.621002197265625, 1464, 1504, 1500, 1500
212.0, -32.0, 8308.0, -2560.0, 4.871999740600586, 2.740997314453125, 17.378997802734375, 1464, 1504, 1500, 1500
256.0, -16.0, 8300.0, -2560.0, -5.128000259399414, -23.259002685546875, 13.378997802734375, 1464, 1504, 1500, 1500
276.0, 32.0, 8292.0, -2544.0, -5.128000259399414, 9.740997314453125, -7.621002197265625, 1464, 1504, 1500, 1500
204.0, 32.0, 8352.0, -2608.0, 20.871999740600586, -5.259002685546875, -16.621002197265625, 1464, 1504, 1500, 1500
148.0, -40.0, 8096.0, -2592.0, 34.87200164794922, -14.259002685546875, 16.378997802734375, 1464, 1504, 1500, 1500
268.0, -104.0, 8204.0, -2592.0, 20.871999740600586, -18.259002685546875, -4.621002197265625, 1464, 1504, 1500, 1500
192.0, -20.0, 8232.0, -2576.0, -9.128000259399414, 10.740997314453125, 20.378997802734375, 1464, 1504, 1500, 1500
224.0, -40.0, 8364.0, -2544.0, 1.871999740600586, -16.259002685546875, 3.378997802734375, 1464, 1504, 1500, 1500
248.0, 4.0, 8360.0, -2576.0, 10.871999740600586, 4.740997314453125, 1.378997802734375, 1464, 1504, 1500, 1500
164.0, -36.0, 8216.0, -2560.0, 12.871999740600586, 7.740997314453125, -2.621002197265625, 1464, 1504, 1500, 1500
244.0, -28.0, 8392.0, -2592.0, -15.128000259399414, -41.259002685546875, -7.621002197265625, 1464, 1504, 1500, 1500
292.0, -60.0, 8276.0, -2608.0, 0.8719997406005859, -6.259002685546875, 26.378997802734375, 1464, 1504, 1500, 1500
140.0, 48.0, 8264.0, -2608.0, 4.871999740600586, -2.259002685546875, 22.378997802734375, 1464, 1504, 1500, 1500
284.0, -40.0, 8248.0, -2592.0, 1.871999740600586, -8.259002685546875, -3.621002197265625, 1464, 1504, 1500, 1500
296.0, -56.0, 8272.0, -2592.0, -18.128000259399414, -0.259002685546875, -11.621002197265625, 1464, 1504, 1500, 1500
188.0, -8.0, 8252.0, -2608.0, 1.871999740600586, 10.740997314453125, -9.621002197265625, 1464, 1504, 1500, 1500
224.0, -36.0, 8132.0, -2576.0, 8.871999740600586, -0.259002685546875, 24.378997802734375, 1464, 1504, 1500, 1500
168.0, -76.0, 8152.0, -2592.0, 6.871999740600586, 14.740997314453125, 19.378997802734375, 1464, 1504, 1500, 1500
340.0, -12.0, 8388.0, -2560.0, -1.128000259399414, -3.259002685546875, 1.378997802734375, 1464, 1504, 1500, 1500
240.0, 12.0, 8248.0, -2544.0, -5.128000259399414, 20.740997314453125, -7.621002197265625, 1464, 1504, 1500, 1500
308.0, -20.0, 8344.0, -2576.0, 6.871999740600586, 6.740997314453125, -4.621002197265625, 1464, 1504, 1500, 1500
292.0, -52.0, 8156.0, -2592.0, -5.128000259399414, -4.259002685546875, 6.378997802734375, 1464, 1504, 1500, 1500
276.0, -12.0, 8204.0, -2592.0, 4.871999740600586, -27.259002685546875, -5.621002197265625, 1464, 1504, 1500, 1500
248.0, 8.0, 8016.0, -2576.0, 1.871999740600586, -9.259002685546875, 4.378997802734375, 1464, 1504, 1500, 1500
260.0, -36.0, 8196.0, -2576.0, 5.871999740600586, -3.259002685546875, -24.621002197265625, 1464, 1504, 1500, 1504
144.0, -60.0, 8180.0, -2576.0, 5.871999740600586, 13.740997314453125, 1.378997802734375, 1464, 1504, 1496, 1504
188.0, -84.0, 8284.0, -2592.0, 10.871999740600586, -6.259002685546875, 7.378997802734375, 1464, 1504, 1496, 1504
168.0, -16.0, 8272.0, -2576.0, -2.128000259399414, -0.259002685546875, -23.621002197265625, 1464, 1504, 1496, 1504
248.0, -56.0, 8112.0, -2576.0, -3.128000259399414, 17.740997314453125, 1.378997802734375, 1464, 1504, 1496, 1504
252.0, -20.0, 8144.0, -2592.0, 5.871999740600586, -16.259002685546875, -18.621002197265625, 1464, 1504, 1496, 1496
140.0, -56.0, 8220.0, -2560.0, 9.871999740600586, 20.740997314453125, -0.621002197265625, 1464, 1504, 1500, 1496
200.0, -44.0, 8276.0, -2592.0, 9.871999740600586, -1.259002685546875, -5.621002197265625, 1464, 1504, 1500, 1496
248.0, 64.0, 8184.0, -2576.0, -2.128000259399414, -0.259002685546875, 20.378997802734375, 1464, 1504, 1500, 1496
148.0, -16.0, 8348.0, -2576.0, -13.128000259399414, 7.740997314453125, 8.378997802734375, 1464, 1504, 1500, 1496
260.0, 24.0, 8148.0, -2560.0, 1.871999740600586, 11.740997314453125, -0.621002197265625, 1464, 1504, 1500, 1496
308.0, -116.0, 8320.0, -2560.0, 5.871999740600586, 6.740997314453125, 2.378997802734375, 1464, 1504, 1500, 1496
212.0, -8.0, 8108.0, -2608.0, -0.12800025939941406, -27.259002685546875, -16.621002197265625, 1464, 1504, 1500, 1496
208.0, 4.0, 8300.0, -2576.0, 12.871999740600586, -23.259002685546875, 4.378997802734375, 1464, 1504, 1500, 1496
260.0, 20.0, 8116.0, -2560.0, -17.128000259399414, 7.740997314453125, -3.621002197265625, 1464, 1504, 1500, 1496
248.0, -20.0, 8260.0, -2560.0, -7.128000259399414, -27.259002685546875, 3.378997802734375, 1464, 1504, 1500, 1492
180.0, 76.0, 8444.0, -2544.0, 9.871999740600586, 4.740997314453125, -23.621002197265625, 1464, 1504, 1500, 1492
200.0, 8.0, 8332.0, -2576.0, 14.871999740600586, -13.259002685546875, -9.621002197265625, 1464, 1504, 1500, 1492
208.0, -40.0, 8352.0, -2576.0, 3.871999740600586, -12.259002685546875, -7.621002197265625, 1464, 1504, 1500, 1492
276.0, 88.0, 8276.0, -2560.0, -10.128000259399414, -1.259002685546875, 16.378997802734375, 1464, 1504, 1500, 1492
340.0, 48.0, 8280.0, -2576.0, -15.128000259399414, 1.740997314453125, 10.378997802734375, 1464, 1504, 1500, 1496
256.0, 64.0, 8188.0, -2576.0, 22.871999740600586, -1.259002685546875, -12.621002197265625, 1464, 1504, 1500, 1496
228.0, -28.0, 8236.0, -2592.0, 7.871999740600586, 17.740997314453125, -32.621002197265625, 1464, 1504, 1500, 1496
212.0, 24.0, 8160.0, -2560.0, -5.128000259399414, 1.740997314453125, -4.621002197265625, 1464, 1504, 1500, 1496
