# ax ay az T gx gy gz throttle roll pitch yaw
0.39654541015625, 0.017333984375, 0.291015625, 0.0, 0.4710334539413452, 1.0451442003250122, 1.3117167949676514, 976, 1504, 1508, 1460
0.38385009765625, 0.00537109375, 0.34619140625, 0.0, -0.1418074071407318, 1.0728881359100342, 1.2908469438552856, 976, 1504, 1508, 1460
0.41851806640625, -0.014404296875, 0.31591796875, 0.0, 0.35461023449897766, 0.3170153498649597, 1.3119127750396729, 980, 1504, 1504, 1460
0.41021728515625, -0.011474609375, 0.33544921875, 0.0, 0.03566690906882286, 0.8405909538269043, 1.294018030166626, 980, 1504, 1504, 1460
0.40045166015625, 0.012451171875, 0.31884765625, 0.0, 0.33895739912986755, 0.14404922723770142, 1.408471941947937, 980, 1504, 1504, 1460
0.39434814453125, -0.0205078125, 0.335693359375, 0.0, -0.022579746320843697, 0.8650554418563843, 1.3916481733322144, 976, 1504, 1504, 1464
0.41021728515625, -0.01904296875, 0.3232421875, 0.0, 0.4811086654663086, 0.3236134648323059, 1.4701035022735596, 976, 1504, 1504, 1464
0.38262939453125, -0.011962890625, 0.325439453125, 0.0, -0.09606761485338211, 0.9575268626213074, 1.4225201606750488, 976, 1504, 1504, 1464
0.39776611328125, -0.000244140625, 0.338134765625, 0.0, 0.17442049086093903, 0.7149741649627686, 1.500840425491333, 976, 1504, 1504, 1464
0.39239501953125, -0.0244140625, 0.320068359375, 0.0, -0.05107288435101509, 1.1373815536499023, 1.3829470872879028, 976, 1504, 1508, 1460
0.40460205078125, -0.005126953125, 0.33056640625, 0.0, 0.05179901793599129, 1.4305205345153809, 1.306104063987732, 976, 1504, 1508, 1460
0.39532470703125, 0.001953125, 0.326416015625, 0.0, -0.011668678373098373, 1.6399917602539062, 1.35770845413208, 976, 1504, 1508, 1460
0.39654541015625, -0.00341796875, 0.338134765625, 0.0, 0.02658657915890217, 1.616056203842163, 1.3337090015411377, 976, 1504, 1508, 1460
0.40069580078125, -0.01708984375, 0.31494140625, 0.0, -0.1977885216474533, 1.8184888362884521, 1.316256046295166, 980, 1504, 1504, 1460
0.39141845703125, 0.001953125, 0.322021484375, 0.0, -0.10035249590873718, 1.8941469192504883, 1.3149443864822388, 980, 1504, 1504, 1460
0.39703369140625, -0.00244140625, 0.331298828125, 0.0, 0.046658728271722794, 1.7349613904953003, 1.3874399662017822, 980, 1504, 1504, 1460
0.39752197265625, -0.003662109375, 0.320556640625, 0.0, -0.057500943541526794, 1.611969232559204, 1.4095633029937744, 976, 1504, 1500, 1468
0.39068603515625, -0.004150390625, 0.33935546875, 0.0, -0.13831737637519836, 1.6969525814056396, 1.3587151765823364, 976, 1504, 1500, 1468
0.39239501953125, -0.00390625, 0.31982421875, 0.0, 0.13685691356658936, 1.3387823104858398, 1.4625574350357056, 976, 1504, 1500, 1468
0.39874267578125, -0.001708984375, 0.3330078125, 0.0, 0.259213387966156, 1.2124297618865967, 1.4332597255706787, 976, 1504, 1500, 1468
0.39508056640625, -0.01318359375, 0.3271484375, 0.0, 0.13415400683879852, 1.078602910041809, 1.3240779638290405, 976, 1504, 1504, 1464
0.39581298828125, -0.008056640625, 0.320556640625, 0.0, 0.2636985182762146, 0.906703770160675, 1.347118616104126, 976, 1504, 1504, 1464
0.39678955078125, -0.00390625, 0.33642578125, 0.0, 0.34753209352493286, 0.7699764370918274, 1.3517826795578003, 976, 1504, 1504, 1464
0.39678955078125, -0.0068359375, 0.330810546875, 0.0, 0.3947787880897522, 0.8222912549972534, 1.336260437965393, 976, 1504, 1504, 1460
0.39288330078125, -0.00732421875, 0.313720703125, 0.0, 0.368164986371994, 0.731542706489563, 1.223130464553833, 976, 1508, 1504, 1460
0.40289306640625, -0.011474609375, 0.32763671875, 0.0, 0.40105167031288147, 0.8389256596565247, 1.2926568984985352, 976, 1508, 1504, 1460
0.39288330078125, -0.01220703125, 0.32568359375, 0.0, 0.268111914396286, 1.0560272932052612, 1.2641438245773315, 976, 1508, 1504, 1460
0.39556884765625, -0.01025390625, 0.321044921875, 0.0, 0.21582898497581482, 1.1588071584701538, 1.2928375005722046, 976, 1508, 1500, 1468
0.39630126953125, -0.005126953125, 0.3310546875, 0.0, 0.09285617619752884, 1.2662767171859741, 1.3161604404449463, 980, 1504, 1500, 1468
0.39727783203125, -0.009765625, 0.337646484375, 0.0, 0.03433966636657715, 1.4956438541412354, 1.3729023933410645, 980, 1504, 1500, 1468
0.39263916015625, -0.00830078125, 0.32861328125, 0.0, 0.03587097302079201, 1.5416611433029175, 1.3519858121871948, 980, 1504, 1500, 1468
0.38970947265625, -0.00634765625, 0.32421875, 0.0, -0.10366825014352798, 1.718889832496643, 1.315008282661438, 976, 1504, 1504, 1464
0.39678955078125, -0.013916015625, 0.335205078125, 0.0, -0.13548339903354645, 1.8252270221710205, 1.3996919393539429, 976, 1504, 1504, 1464
0.39508056640625, -0.006103515625, 0.33251953125, 0.0, -0.17594653367996216, 1.736357569694519, 1.4566091299057007, 976, 1504, 1504, 1464
0.39141845703125, -0.00048828125, 0.3232421875, 0.0, -0.13304883241653442, 1.6586084365844727, 1.3625150918960571, 976, 1504, 1504, 1460
0.39776611328125, -0.0107421875, 0.333984375, 0.0, -0.17753922939300537, 1.6150126457214355, 1.3213258981704712, 996, 1488, 1504, 1460
0.39410400390625, -0.014892578125, 0.33544921875, 0.0, -0.054615143686532974, 1.4331296682357788, 1.3302001953125, 996, 1488, 1504, 1460
0.39337158203125, 0.004150390625, 0.322509765625, 0.0, 0.11990267038345337, 1.1743816137313843, 1.320257544517517, 996, 1488, 1504, 1460
0.39752197265625, -0.009765625, 0.32177734375, 0.0, 0.12385000288486481, 1.022186279296875, 1.3387194871902466, 996, 1488, 1496, 1460
0.39215087890625, -0.0126953125, 0.330810546875, 0.0, 0.17201992869377136, 0.9461362361907959, 1.3559035062789917, 980, 1504, 1496, 1460
0.40045166015625, -0.0078125, 0.32470703125, 0.0, 0.30779212713241577, 0.7814221978187561, 1.3814810514450073, 980, 1504, 1496, 1460
0.39801025390625, -0.00634765625, 0.327392578125, 0.0, 0.4075760543346405, 0.6367922425270081, 1.4334689378738403, 980, 1504, 1496, 1460
0.40142822265625, -0.00927734375, 0.3271484375, 0.0, 0.3392021656036377, 0.72406005859375, 1.4096996784210205, 968, 1504, 1516, 1460
0.39727783203125, -0.013671875, 0.3310546875, 0.0, 0.3317655920982361, 0.8191689252853394, 1.3801709413528442, 968, 1504, 1516, 1460
0.39678955078125, -0.0078125, 0.328857421875, 0.0, 0.38837236166000366, 0.7754708528518677, 1.334972858428955, 968, 1504, 1516, 1460
0.39923095703125, -0.004150390625, 0.3193359375, 0.0, 0.27577149868011475, 0.9416185021400452, 1.3475486040115356, 968, 1504, 1516, 1464
0.39556884765625, -0.013427734375, 0.33349609375, 0.0, 0.10744764655828476, 1.2122993469238281, 1.3795216083526611, 976, 1504, 1504, 1464
0.39190673828125, -0.010986328125, 0.324951171875, 0.0, 0.07057546079158783, 1.2983720302581787, 1.4139726161956787, 976, 1504, 1504, 1464
0.40093994140625, -0.001220703125, 0.3232421875, 0.0, -0.00040281456313095987, 1.447725534439087, 1.3980019092559814, 976, 1504, 1504, 1464
0.39312744140625, -0.00830078125, 0.32373046875, 0.0, -0.11321878433227539, 1.6655818223953247, 1.330404281616211, 976, 1504, 1508, 1460
0.39019775390625, -0.013916015625, 0.336669921875, 0.0, -0.09541219472885132, 1.7627079486846924, 1.3387006521224976, 976, 1504, 1508, 1460
0.39508056640625, -0.0009765625, 0.330078125, 0.0, -0.04503357782959938, 1.7049530744552612, 1.358945608139038, 976, 1504, 1508, 1460
0.39556884765625, 0.000732421875, 0.32763671875, 0.0, -0.13694381713867188, 1.761903166770935, 1.3588789701461792, 976, 1504, 1508, 1460
0.38629150390625, -0.0107421875, 0.330322265625, 0.0, -0.15239529311656952, 1.7044702768325806, 1.3313578367233276, 980, 1504, 1488, 1476
0.38922119140625, -0.009521484375, 0.33349609375, 0.0, -0.024261604994535446, 1.495964527130127, 1.418662190437317, 980, 1504, 1488, 1476
0.39190673828125, -0.005126953125, 0.329345703125, 0.0, -0.017610399052500725, 1.364754319190979, 1.38554847240448, 980, 1504, 1488, 1476
0.39459228515625, -0.006591796875, 0.322021484375, 0.0, 0.001647500554099679, 1.2585474252700806, 1.435909390449524, 980, 1504, 1488, 1476
0.39288330078125, -0.006591796875, 0.3291015625, 0.0, 0.14755339920520782, 1.014670491218567, 1.386736512184143, 980, 1504, 1504, 1464
0.39923095703125, -0.008544921875, 0.336669921875, 0.0, 0.1801351010799408, 0.8530770540237427, 1.436622142791748, 980, 1504, 1504, 1464
0.39556884765625, -0.010986328125, 0.33349609375, 0.0, 0.2180047333240509, 0.8141364455223083, 1.4451794624328613, 980, 1504, 1504, 1464
0.39849853515625, -0.011474609375, 0.334228515625, 0.0, 0.29874178767204285, 0.7083292007446289, 1.450313925743103, 980, 1504, 1508, 1460
0.40118408203125, -0.00830078125, 0.331787109375, 0.0, 0.2616878151893616, 0.7395013570785522, 1.4747685194015503, 972, 1504, 1508, 1460
0.39849853515625, -0.00830078125, 0.32421875, 0.0, 0.26082947850227356, 0.8437008261680603, 1.4680671691894531, 972, 1504, 1508, 1460
0.40216064453125, -0.01123046875, 0.322265625, 0.0, 0.32138317823410034, 0.942861795425415, 1.4060312509536743, 972, 1504, 1508, 1460
0.39801025390625, -0.00537109375, 0.33447265625, 0.0, 0.2752726674079895, 1.002358317375183, 1.4023973941802979, 980, 1504, 1504, 1464
0.39898681640625, -0.007080078125, 0.325439453125, 0.0, 0.20180481672286987, 1.2487432956695557, 1.3880033493041992, 980, 1504, 1504, 1464
0.39556884765625, 0.000732421875, 0.32763671875, 0.0, 0.14856380224227905, 1.3446658849716187, 1.2816569805145264, 980, 1504, 1504, 1464
0.39434814453125, -0.003662109375, 0.327880859375, 0.0, 0.05249706283211708, 1.499929428100586, 1.2758644819259644, 980, 1504, 1504, 1464
0.39361572265625, -0.009521484375, 0.329833984375, 0.0, -0.08453229069709778, 1.6694233417510986, 1.2357476949691772, 976, 1504, 1508, 1460
0.39703369140625, -0.011962890625, 0.32470703125, 0.0, -0.09346746653318405, 1.6428754329681396, 1.3277082443237305, 976, 1504, 1508, 1460
0.39678955078125, -0.003662109375, 0.335693359375, 0.0, -0.08966826647520065, 1.6361069679260254, 1.294334888458252, 976, 1504, 1508, 1460
0.39556884765625, -0.006591796875, 0.334228515625, 0.0, -0.04464065656065941, 1.5954047441482544, 1.3048453330993652, 976, 1504, 1508, 1456
0.39923095703125, -0.0078125, 0.326416015625, 0.0, -0.08174623548984528, 1.525181770324707, 1.3508461713790894, 976, 1504, 1504, 1456
0.39410400390625, -0.0078125, 0.324951171875, 0.0, -0.012406520545482635, 1.4158724546432495, 1.3723398447036743, 976, 1504, 1504, 1456
0.39825439453125, -0.00341796875, 0.328369140625, 0.0, -0.028817957267165184, 1.234256386756897, 1.4035565853118896, 976, 1504, 1504, 1456
0.40167236328125, -0.006103515625, 0.331787109375, 0.0, 0.01324357558041811, 1.110019564628601, 1.4345004558563232, 980, 1504, 1504, 1464
0.39337158203125, -0.012451171875, 0.329345703125, 0.0, 0.15145760774612427, 0.9713553190231323, 1.3981047868728638, 980, 1500, 1504, 1464
0.39410400390625, -0.008056640625, 0.324951171875, 0.0, 0.2160654067993164, 0.8881567120552063, 1.3823744058609009, 980, 1500, 1504, 1464
0.39801025390625, -0.008544921875, 0.3359375, 0.0, 0.28231102228164673, 0.8657184839248657, 1.430951476097107, 980, 1500, 1504, 1464
0.39825439453125, -0.011962890625, 0.32373046875, 0.0, 0.27625682950019836, 0.8217211961746216, 1.3959754705429077, 984, 1500, 1504, 1460
0.39776611328125, -0.010009765625, 0.321044921875, 0.0, 0.251250296831131, 0.9418876767158508, 1.3627761602401733, 984, 1500, 1504, 1460
0.39288330078125, -0.008544921875, 0.32177734375, 0.0, 0.23929980397224426, 1.099483847618103, 1.3703376054763794, 984, 1500, 1504, 1460
0.39410400390625, -0.012939453125, 0.331787109375, 0.0, 0.1466333270072937, 1.1879347562789917, 1.3382331132888794, 984, 1500, 1504, 1464
0.40045166015625, -0.0107421875, 0.321533203125, 0.0, 0.17652961611747742, 1.2990204095840454, 1.2823292016983032, 976, 1504, 1504, 1464
0.39190673828125, -0.005859375, 0.32177734375, 0.0, 0.15171930193901062, 1.3839924335479736, 1.3251227140426636, 976, 1504, 1504, 1464
0.39117431640625, -0.010009765625, 0.32568359375, 0.0, 0.02996288239955902, 1.5448992252349854, 1.3507988452911377, 976, 1504, 1504, 1464
0.39825439453125, -0.000244140625, 0.326416015625, 0.0, -0.067518450319767, 1.4979320764541626, 1.3967390060424805, 976, 1504, 1512, 1464
0.39630126953125, -0.003662109375, 0.32666015625, 0.0, -0.022190460935235023, 1.5369272232055664, 1.363234281539917, 968, 1504, 1512, 1464
0.39508056640625, -0.005126953125, 0.31884765625, 0.0, -0.08048985153436661, 1.5542173385620117, 1.379772663116455, 968, 1504, 1512, 1464
0.39459228515625, -0.00390625, 0.328857421875, 0.0, -0.11852291971445084, 1.4332938194274902, 1.3835887908935547, 968, 1504, 1512, 1464
0.39727783203125, -0.0078125, 0.327392578125, 0.0, -0.10164810717105865, 1.4095945358276367, 1.3461837768554688, 980, 1504, 1504, 1460
0.39605712890625, -0.005615234375, 0.32763671875, 0.0, -0.08846978098154068, 1.3556804656982422, 1.3206874132156372, 980, 1504, 1504, 1460
0.39141845703125, -0.006591796875, 0.326171875, 0.0, -0.016440650448203087, 1.298904538154602, 1.2992827892303467, 980, 1504, 1504, 1460
0.39849853515625, -0.012451171875, 0.3203125, 0.0, 0.029830267652869225, 1.191556453704834, 1.2803330421447754, 980, 1504, 1504, 1468
0.39874267578125, -0.008544921875, 0.318115234375, 0.0, 0.1125546544790268, 1.0905064344406128, 1.2414823770523071, 976, 1504, 1500, 1468
0.39434814453125, -0.00439453125, 0.329345703125, 0.0, 0.21104425191879272, 1.0420901775360107, 1.3250420093536377, 976, 1504, 1500, 1468
0.39581298828125, -0.01025390625, 0.331298828125, 0.0, 0.22433649003505707, 1.0160938501358032, 1.2866283655166626, 976, 1504, 1500, 1468
0.39190673828125, -0.0146484375, 0.322998046875, 0.0, 0.2597927451133728, 1.031030297279358, 1.3154884576797485, 976, 1504, 1504, 1460
0.39654541015625, -0.00634765625, 0.32177734375, 0.0, 0.28717339038848877, 1.0338854789733887, 1.3450183868408203, 980, 1504, 1504, 1460
0.39166259765625, -0.00830078125, 0.323974609375, 0.0, 0.23947961628437042, 1.0264381170272827, 1.399377465248108, 980, 1504, 1504, 1460
0.39190673828125, -0.0107421875, 0.326416015625, 0.0, 0.2078099101781845, 1.1441072225570679, 1.4350463151931763, 980, 1504, 1504, 1460
0.39556884765625, -0.00634765625, 0.3271484375, 0.0, 0.1399531364440918, 1.2605102062225342, 1.435073733329773, 980, 1504, 1504, 1464
0.39776611328125, -0.005126953125, 0.320556640625, 0.0, 0.07481157779693604, 1.3395122289657593, 1.428983211517334, 980, 1504, 1504, 1464
0.39678955078125, -0.0078125, 0.326416015625, 0.0, -0.025342056527733803, 1.3991272449493408, 1.455863356590271, 980, 1504, 1504, 1464
0.39801025390625, -0.010009765625, 0.335693359375, 0.0, 0.0031153764575719833, 1.4898581504821777, 1.5055791139602661, 980, 1504, 1504, 1460
0.39874267578125, -0.00634765625, 0.3271484375, 0.0, 0.029350142925977707, 1.5320827960968018, 1.4407521486282349, 980, 1504, 1504, 1460
0.39581298828125, -0.007080078125, 0.32568359375, 0.0, 0.011503215879201889, 1.5604711771011353, 1.3865888118743896, 980, 1504, 1504, 1460
0.39166259765625, -0.0068359375, 0.32763671875, 0.0, 0.0038484944961965084, 1.492007851600647, 1.3724113702774048, 980, 1504, 1504, 1460
0.39117431640625, -0.0078125, 0.32421875, 0.0, 0.0023090967442840338, 1.3898613452911377, 1.3150500059127808, 980, 1504, 1504, 1460
0.39483642578125, -0.00048828125, 0.313232421875, 0.0, 0.06245415657758713, 1.3163596391677856, 1.3569689989089966, 976, 1504, 1504, 1460
0.39678955078125, -0.0107421875, 0.321533203125, 0.0, 0.10464806854724884, 1.16233491897583, 1.3302119970321655, 976, 1504, 1504, 1460
0.39581298828125, -0.0078125, 0.32373046875, 0.0, 0.14828503131866455, 1.1279352903366089, 1.3294248580932617, 976, 1504, 1504, 1460
0.39532470703125, -0.006591796875, 0.32568359375, 0.0, 0.19278781116008759, 1.088974952697754, 1.441929817199707, 976, 1504, 1504, 1464
0.39117431640625, -0.0068359375, 0.33154296875, 0.0, 0.2255963683128357, 0.9984230995178223, 1.4361501932144165, 976, 1504, 1504, 1464
0.39849853515625, -0.016357421875, 0.33056640625, 0.0, 0.19031965732574463, 1.020427942276001, 1.469323754310608, 976, 1504, 1504, 1464
0.39483642578125, -0.011962890625, 0.3271484375, 0.0, 0.20884829759597778, 0.9847757816314697, 1.37930428981781, 976, 1504, 1504, 1464
0.39849853515625, -0.00634765625, 0.330810546875, 0.0, 0.20469830930233002, 1.0213998556137085, 1.4199490547180176, 976, 1504, 1508, 1460
0.39703369140625, -0.0078125, 0.318603515625, 0.0, 0.18388770520687103, 1.1136032342910767, 1.4076945781707764, 976, 1504, 1508, 1460
0.40118408203125, -0.0126953125, 0.33544921875, 0.0, 0.20498912036418915, 1.1231237649917603, 1.4247695207595825, 976, 1504, 1508, 1460
0.39312744140625, -0.007568359375, 0.33056640625, 0.0, 0.12910035252571106, 1.189904808998108, 1.3953198194503784, 976, 1504, 1488, 1480
0.39263916015625, -0.009033203125, 0.33251953125, 0.0, 0.07440678030252457, 1.309362769126892, 1.472306489944458, 980, 1500, 1488, 1480
0.39776611328125, -0.00830078125, 0.3310546875, 0.0, 0.06296467781066895, 1.4482131004333496, 1.396360993385315, 980, 1500, 1488, 1480
0.39434814453125, -0.005615234375, 0.3310546875, 0.0, -0.044663939625024796, 1.4490805864334106, 1.3110990524291992, 980, 1500, 1488, 1480
0.39361572265625, 0.000244140625, 0.325439453125, 0.0, -0.06038615107536316, 1.4679217338562012, 1.437041163444519, 976, 1500, 1500, 1468
0.39459228515625, -0.00537109375, 0.332763671875, 0.0, -0.07592634856700897, 1.4517453908920288, 1.417949914932251, 976, 1504, 1500, 1468
0.40069580078125, 0.001708984375, 0.337890625, 0.0, -0.030288638547062874, 1.365703821182251, 1.4126020669937134, 976, 1504, 1500, 1468
0.39483642578125, -0.005126953125, 0.319091796875, 0.0, -0.06092127412557602, 1.320185661315918, 1.4399276971817017, 976, 1504, 1500, 1468
0.39141845703125, -0.0078125, 0.32177734375, 0.0, -0.015178722329437733, 1.1921113729476929, 1.4654834270477295, 992, 1488, 1504, 1460
0.39385986328125, -0.00537109375, 0.3271484375, 0.0, 0.009213377721607685, 1.0877859592437744, 1.3892136812210083, 992, 1488, 1504, 1460
0.39801025390625, -0.006591796875, 0.329833984375, 0.0, 0.03300894424319267, 1.0312975645065308, 1.3800932168960571, 992, 1488, 1504, 1460
0.39996337890625, -0.00732421875, 0.32666015625, 0.0, 0.07171376049518585, 0.9851908087730408, 1.3715673685073853, 992, 1488, 1504, 1464
0.40167236328125, -0.009033203125, 0.3291015625, 0.0, 0.11936413496732712, 0.966687023639679, 1.3542381525039673, 976, 1512, 1504, 1464
0.40240478515625, -0.009033203125, 0.330078125, 0.0, 0.18154214322566986, 0.9403176307678223, 1.3896421194076538, 976, 1512, 1504, 1464
0.39361572265625, -0.011474609375, 0.319580078125, 0.0, 0.17304742336273193, 1.0222058296203613, 1.3162280321121216, 976, 1512, 1504, 1464
0.39605712890625, -0.009765625, 0.322509765625, 0.0, 0.14657655358314514, 1.0804990530014038, 1.2660727500915527, 980, 1512, 1504, 1460
0.39947509765625, -0.01171875, 0.320068359375, 0.0, 0.11848028749227524, 1.1582231521606445, 1.3275827169418335, 980, 1500, 1504, 1460
0.39630126953125, -0.00439453125, 0.325439453125, 0.0, 0.06192787364125252, 1.3269950151443481, 1.275938868522644, 980, 1500, 1504, 1460
0.39825439453125, -0.010009765625, 0.318359375, 0.0, 0.04937046766281128, 1.364135980606079, 1.287700891494751, 980, 1500, 1504, 1460
0.39678955078125, -0.0107421875, 0.326904296875, 0.0, 0.06626350432634354, 1.3375656604766846, 1.3039182424545288, 976, 1504, 1504, 1460
0.39581298828125, -0.008544921875, 0.321044921875, 0.0, 0.07334589213132858, 1.428493618965149, 1.3411296606063843, 976, 1504, 1504, 1460
0.39532470703125, -0.00927734375, 0.332275390625, 0.0, 0.07759532332420349, 1.501370906829834, 1.4275785684585571, 976, 1504, 1504, 1460
0.39239501953125, -0.0107421875, 0.32666015625, 0.0, 0.012969410046935081, 1.4779218435287476, 1.3725776672363281, 976, 1504, 1504, 1460
0.38800048828125, -0.004150390625, 0.32421875, 0.0, -0.022752704098820686, 1.4760661125183105, 1.403699278831482, 976, 1504, 1504, 1460
0.39556884765625, -0.006103515625, 0.32861328125, 0.0, 0.0016155524645000696, 1.429151177406311, 1.4254257678985596, 976, 1504, 1504, 1460
0.39825439453125, -0.01025390625, 0.330810546875, 0.0, -0.0051375385373830795, 1.32161283493042, 1.4109807014465332, 976, 1504, 1504, 1460
0.39508056640625, -0.009033203125, 0.32373046875, 0.0, 0.04882587492465973, 1.2021280527114868, 1.3473517894744873, 980, 1504, 1504, 1460
0.39141845703125, -0.004638671875, 0.326904296875, 0.0, 0.11784514784812927, 1.1243302822113037, 1.345815658569336, 980, 1500, 1504, 1460
0.39923095703125, -0.006591796875, 0.3291015625, 0.0, 0.12566892802715302, 1.0318500995635986, 1.3540542125701904, 980, 1500, 1504, 1460
0.39874267578125, -0.00927734375, 0.329345703125, 0.0, 0.13952350616455078, 0.9977360963821411, 1.386478304862976, 980, 1500, 1504, 1460
0.39117431640625, -0.007080078125, 0.32177734375, 0.0, 0.1264621913433075, 0.9803210496902466, 1.3723450899124146, 980, 1504, 1504, 1460
0.39874267578125, -0.013916015625, 0.31640625, 0.0, 0.12473228573799133, 1.0797958374023438, 1.3791322708129883, 980, 1504, 1504, 1460
0.39312744140625, -0.010498046875, 0.319580078125, 0.0, 0.16644243896007538, 1.0997858047485352, 1.3435097932815552, 980, 1504, 1504, 1460
0.40557861328125, -0.008056640625, 0.324951171875, 0.0, 0.16704103350639343, 1.1270471811294556, 1.328243374824524, 980, 1504, 1504, 1464
0.39337158203125, -0.0078125, 0.32763671875, 0.0, 0.15823988616466522, 1.2441672086715698, 1.3312971591949463, 976, 1504, 1504, 1464
0.39923095703125, -0.01220703125, 0.334228515625, 0.0, 0.16211950778961182, 1.3205461502075195, 1.3545036315917969, 976, 1504, 1504, 1464
0.39776611328125, -0.005126953125, 0.326904296875, 0.0, 0.16139383614063263, 1.3846940994262695, 1.3592671155929565, 976, 1504, 1504, 1464
0.39508056640625, -0.003662109375, 0.33154296875, 0.0, 0.0815691351890564, 1.4384499788284302, 1.432354211807251, 980, 1504, 1504, 1460
0.39849853515625, -0.007080078125, 0.334716796875, 0.0, 0.08558270335197449, 1.4645968675613403, 1.384603500366211, 980, 1504, 1504, 1460
0.39312744140625, -0.009765625, 0.33056640625, 0.0, 0.07577710598707199, 1.4619642496109009, 1.4292354583740234, 980, 1504, 1504, 1460
0.39434814453125, -0.005126953125, 0.3310546875, 0.0, 0.07600061595439911, 1.5031328201293945, 1.370518445968628, 980, 1504, 1504, 1460
0.39044189453125, -0.005615234375, 0.33544921875, 0.0, -0.006308028008788824, 1.4331774711608887, 1.3902500867843628, 976, 1504, 1504, 1464
0.39849853515625, -0.0048828125, 0.3271484375, 0.0, -0.06485351920127869, 1.4125783443450928, 1.3349133729934692, 976, 1504, 1504, 1464
0.39703369140625, -0.002197265625, 0.324951171875, 0.0, -0.011431197635829449, 1.2933485507965088, 1.3566733598709106, 976, 1504, 1504, 1464
0.39971923828125, -0.002197265625, 0.330322265625, 0.0, 0.014515327289700508, 1.2706657648086548, 1.3178207874298096, 976, 1504, 1504, 1464
0.39361572265625, -0.00634765625, 0.32275390625, 0.0, 0.06367103010416031, 1.1562926769256592, 1.334204077720642, 976, 1504, 1504, 1464
0.39093017578125, -0.009033203125, 0.321044921875, 0.0, 0.1511797159910202, 1.145684003829956, 1.353194236755371, 976, 1504, 1504, 1464
0.39776611328125, -0.0087890625, 0.313720703125, 0.0, 0.13345591723918915, 1.1087844371795654, 1.3737486600875854, 976, 1504, 1504, 1464
0.39898681640625, -0.0107421875, 0.318359375, 0.0, 0.09839416295289993, 1.0438966751098633, 1.3769209384918213, 976, 1504, 1504, 1460
0.39337158203125, -0.012451171875, 0.329345703125, 0.0, 0.07735711336135864, 1.038551688194275, 1.4368395805358887, 980, 1504, 1504, 1460
0.39947509765625, -0.00830078125, 0.31982421875, 0.0, 0.1196967139840126, 1.0689326524734497, 1.4697372913360596, 980, 1504, 1504, 1460
0.40069580078125, -0.012451171875, 0.333984375, 0.0, 0.13594017922878265, 1.084107756614685, 1.4803156852722168, 980, 1504, 1504, 1460
0.39874267578125, -0.007568359375, 0.324951171875, 0.0, 0.1701137274503708, 1.077945590019226, 1.4164338111877441, 980, 1504, 1504, 1464
0.39532470703125, -0.009521484375, 0.329345703125, 0.0, 0.16924381256103516, 1.165851354598999, 1.4300129413604736, 980, 1500, 1504, 1464
0.39703369140625, -0.01025390625, 0.331787109375, 0.0, 0.11376003921031952, 1.2979841232299805, 1.4320536851882935, 980, 1500, 1504, 1464
0.39825439453125, -0.004150390625, 0.328857421875, 0.0, 0.06520259380340576, 1.3100881576538086, 1.3966368436813354, 980, 1500, 1504, 1460
0.40093994140625, -0.005126953125, 0.3193359375, 0.0, 0.02080094814300537, 1.4028469324111938, 1.3876005411148071, 980, 1504, 1504, 1460
0.39263916015625, -0.00390625, 0.312744140625, 0.0, 0.01553400419652462, 1.4188073873519897, 1.3669114112854004, 980, 1504, 1504, 1460
0.39239501953125, -0.004638671875, 0.326171875, 0.0, -0.04564143344759941, 1.419223427772522, 1.4002995491027832, 980, 1504, 1504, 1460
0.39825439453125, -0.006103515625, 0.339111328125, 0.0, -0.015171120874583721, 1.391992211341858, 1.398958444595337, 980, 1504, 1504, 1460
0.39923095703125, -0.00439453125, 0.322509765625, 0.0, -0.0029958027880638838, 1.415347933769226, 1.4073140621185303, 980, 1508, 1504, 1460
0.39215087890625, -0.010009765625, 0.32275390625, 0.0, -0.004850916564464569, 1.3072240352630615, 1.3878999948501587, 980, 1508, 1504, 1460
0.39752197265625, -0.007080078125, 0.3330078125, 0.0, 0.04594441503286362, 1.1629605293273926, 1.4128926992416382, 980, 1508, 1504, 1460
0.39508056640625, -0.002685546875, 0.33837890625, 0.0, 0.0794750452041626, 1.131364107131958, 1.5103310346603394, 976, 1508, 1500, 1468
0.39825439453125, -0.0078125, 0.330810546875, 0.0, 0.08737968653440475, 1.0696581602096558, 1.5352063179016113, 976, 1508, 1500, 1468
0.39923095703125, -0.010498046875, 0.322265625, 0.0, 0.08601559698581696, 1.0540086030960083, 1.5195971727371216, 976, 1508, 1500, 1468
0.39849853515625, -0.01611328125, 0.33447265625, 0.0, 0.10962463170289993, 1.0843136310577393, 1.4766438007354736, 976, 1508, 1500, 1468
0.40045166015625, -0.007568359375, 0.323974609375, 0.0, 0.1451641023159027, 1.084175944328308, 1.426444411277771, 976, 1504, 1508, 1448
0.40191650390625, -0.007568359375, 0.32421875, 0.0, 0.19396869838237762, 1.0749331712722778, 1.3993781805038452, 976, 1504, 1508, 1448
0.39825439453125, -0.016845703125, 0.323974609375, 0.0, 0.18355679512023926, 1.1396163702011108, 1.3678712844848633, 976, 1504, 1508, 1448
0.40045166015625, -0.006591796875, 0.329833984375, 0.0, 0.18646995723247528, 1.1509454250335693, 1.342860221862793, 976, 1504, 1508, 1460
0.39556884765625, -0.005615234375, 0.334716796875, 0.0, 0.16379037499427795, 1.1669031381607056, 1.3461741209030151, 980, 1508, 1504, 1460
0.39630126953125, -0.010009765625, 0.328857421875, 0.0, 0.1959841549396515, 1.2344931364059448, 1.3451091051101685, 980, 1508, 1504, 1460
0.39019775390625, -0.01123046875, 0.332763671875, 0.0, 0.10232332348823547, 1.2750470638275146, 1.3872182369232178, 980, 1508, 1504, 1460
0.39459228515625, -0.001220703125, 0.326904296875, 0.0, 0.07360773533582687, 1.3024327754974365, 1.4308042526245117, 976, 1508, 1504, 1464
0.39630126953125, -0.004638671875, 0.337646484375, 0.0, 0.12660738825798035, 1.361612319946289, 1.4905437231063843, 976, 1504, 1504, 1464
0.39678955078125, -0.003662109375, 0.321044921875, 0.0, 0.12176595628261566, 1.406280517578125, 1.4042500257492065, 976, 1504, 1504, 1464
0.39312744140625, -0.0029296875, 0.328369140625, 0.0, 0.13107484579086304, 1.4575088024139404, 1.3738478422164917, 976, 1504, 1504, 1464
0.39703369140625, -0.006103515625, 0.32421875, 0.0, 0.04505712538957596, 1.4149633646011353, 1.4411027431488037, 980, 1504, 1504, 1460
0.39532470703125, 0.0009765625, 0.33740234375, 0.0, 0.04230145364999771, 1.352794885635376, 1.4509211778640747, 980, 1504, 1504, 1460
0.39288330078125, -0.002685546875, 0.32763671875, 0.0, 0.08950302004814148, 1.3154937028884888, 1.3865833282470703, 980, 1504, 1504, 1460
0.39483642578125, -0.01025390625, 0.33203125, 0.0, 0.07202242314815521, 1.293113112449646, 1.3846217393875122, 980, 1504, 1504, 1464
0.39361572265625, -0.002685546875, 0.3369140625, 0.0, 0.07985467463731766, 1.2491503953933716, 1.3956584930419922, 980, 1504, 1504, 1464
0.39727783203125, -0.010986328125, 0.32958984375, 0.0, 0.08760746568441391, 1.1678109169006348, 1.3595325946807861, 980, 1504, 1504, 1464
0.39483642578125, -0.009765625, 0.3349609375, 0.0, 0.09531257301568985, 1.173969030380249, 1.3317500352859497, 980, 1504, 1504, 1464
0.39581298828125, -0.013916015625, 0.325439453125, 0.0, 0.13657686114311218, 1.1104882955551147, 1.287599802017212, 976, 1504, 1504, 1464
0.39532470703125, -0.009033203125, 0.32568359375, 0.0, 0.15217511355876923, 1.0998808145523071, 1.2916438579559326, 976, 1504, 1504, 1464
0.39776611328125, -0.00927734375, 0.330810546875, 0.0, 0.16458751261234283, 1.102676510810852, 1.3459787368774414, 976, 1504, 1504, 1464
0.39556884765625, -0.006103515625, 0.3251953125, 0.0, 0.1934090107679367, 1.1409952640533447, 1.366365909576416, 976, 1504, 1504, 1464
0.40240478515625, -0.00927734375, 0.32763671875, 0.0, 0.17711412906646729, 1.2433757781982422, 1.3083691596984863, 976, 1504, 1504, 1464
0.39874267578125, -0.00439453125, 0.32080078125, 0.0, 0.20397840440273285, 1.222361445426941, 1.3621207475662231, 976, 1504, 1504, 1464
0.39605712890625, -0.00634765625, 0.316162109375, 0.0, 0.14070765674114227, 1.2799817323684692, 1.3455168008804321, 976, 1504, 1504, 1464
0.38922119140625, -0.003662109375, 0.33984375, 0.0, 0.12717269361019135, 1.3053936958312988, 1.311126947402954, 976, 1504, 1504, 1464
0.40118408203125, -0.006591796875, 0.3310546875, 0.0, 0.09157078713178635, 1.400030255317688, 1.3118669986724854, 972, 1508, 1508, 1464
0.39825439453125, -0.001953125, 0.322509765625, 0.0, 0.06715621799230576, 1.447651743888855, 1.2817766666412354, 972, 1508, 1508, 1464
0.39703369140625, -0.00439453125, 0.325439453125, 0.0, 0.06777464598417282, 1.3510338068008423, 1.355325698852539, 972, 1508, 1508, 1464
0.39044189453125, -0.0048828125, 0.334228515625, 0.0, 0.07425257563591003, 1.406040072441101, 1.3231191635131836, 972, 1508, 1508, 1460
0.39801025390625, -0.007568359375, 0.32666015625, 0.0, 0.03233780339360237, 1.344387412071228, 1.3068486452102661, 980, 1500, 1508, 1460
0.39093017578125, -0.006103515625, 0.324951171875, 0.0, 0.04688359797000885, 1.2646477222442627, 1.3367810249328613, 980, 1500, 1508, 1460
0.39898681640625, -0.0107421875, 0.328857421875, 0.0, 0.07698512077331543, 1.2473381757736206, 1.379167914390564, 980, 1500, 1508, 1460
0.39752197265625, -0.0107421875, 0.326904296875, 0.0, 0.14390099048614502, 1.1331357955932617, 1.4259740114212036, 976, 1516, 1508, 1460
0.40142822265625, -0.001708984375, 0.331787109375, 0.0, 0.15046274662017822, 1.1134693622589111, 1.3899357318878174, 976, 1516, 1508, 1460
0.39874267578125, -0.006591796875, 0.336669921875, 0.0, 0.12081199884414673, 1.1260968446731567, 1.4171676635742188, 976, 1516, 1508, 1460
0.39703369140625, -0.01416015625, 0.3291015625, 0.0, 0.13966277241706848, 1.1000856161117554, 1.390758752822876, 976, 1516, 1508, 1464
0.40069580078125, -0.012939453125, 0.33251953125, 0.0, 0.1295991986989975, 1.1424942016601562, 1.359646201133728, 976, 1504, 1504, 1464
0.40069580078125, -0.007568359375, 0.3291015625, 0.0, 0.09302669763565063, 1.1648857593536377, 1.4173145294189453, 976, 1504, 1504, 1464
0.39141845703125, -0.009033203125, 0.320556640625, 0.0, 0.11688472330570221, 1.266870379447937, 1.4458085298538208, 976, 1504, 1504, 1464
0.38824462890625, -0.01123046875, 0.322998046875, 0.0, 0.12203923612833023, 1.2578322887420654, 1.4201569557189941, 976, 1504, 1504, 1460
0.39361572265625, -0.009765625, 0.329833984375, 0.0, 0.13123880326747894, 1.2798901796340942, 1.377285122871399, 980, 1504, 1504, 1460
0.40045166015625, 0.0009765625, 0.330322265625, 0.0, 0.17339977622032166, 1.2412165403366089, 1.3393481969833374, 980, 1504, 1504, 1460
0.40093994140625, -0.007080078125, 0.321044921875, 0.0, 0.11930704116821289, 1.3035086393356323, 1.3104791641235352, 980, 1504, 1504, 1460
0.39361572265625, -0.007568359375, 0.316162109375, 0.0, 0.12959949672222137, 1.383631944656372, 1.2809441089630127, 976, 1504, 1504, 1460
0.39337158203125, -0.003173828125, 0.323974609375, 0.0, 0.1540955752134323, 1.3828508853912354, 1.2937573194503784, 976, 1508, 1504, 1460
0.39410400390625, -0.004150390625, 0.32421875, 0.0, 0.11993826925754547, 1.3549015522003174, 1.2556437253952026, 976, 1508, 1504, 1460
0.39923095703125, -0.005126953125, 0.32861328125, 0.0, 0.08417670428752899, 1.350345492362976, 1.272470235824585, 976, 1508, 1504, 1464
0.39312744140625, -0.00732421875, 0.32470703125, 0.0, 0.04745258763432503, 1.2773828506469727, 1.3069937229156494, 976, 1504, 1504, 1464
0.40020751953125, -0.003173828125, 0.322021484375, 0.0, 0.06511277705430984, 1.2824602127075195, 1.4009901285171509, 976, 1504, 1504, 1464
0.39727783203125, -0.004638671875, 0.329345703125, 0.0, 0.1306707262992859, 1.2091708183288574, 1.3749452829360962, 976, 1504, 1504, 1464
0.40020751953125, -0.01123046875, 0.3154296875, 0.0, 0.07840243726968765, 1.210998773574829, 1.4417610168457031, 976, 1504, 1512, 1460
0.39263916015625, -0.0068359375, 0.326904296875, 0.0, 0.06841550767421722, 1.178507685661316, 1.3627666234970093, 972, 1504, 1512, 1460
0.40069580078125, -0.00634765625, 0.32861328125, 0.0, 0.11433175206184387, 1.1193183660507202, 1.3947592973709106, 972, 1504, 1512, 1460
0.39752197265625, -0.017578125, 0.319580078125, 0.0, 0.10829370468854904, 1.1296062469482422, 1.355939507484436, 972, 1504, 1512, 1460
0.39239501953125, -0.0146484375, 0.327392578125, 0.0, 0.0955105796456337, 1.1327255964279175, 1.3051668405532837, 976, 1504, 1504, 1464
0.40216064453125, -0.0107421875, 0.325927734375, 0.0, 0.11532162129878998, 1.250627875328064, 1.271649718284607, 976, 1504, 1504, 1464
0.39971923828125, -0.00732421875, 0.32666015625, 0.0, 0.16995632648468018, 1.2541935443878174, 1.297340989112854, 976, 1504, 1504, 1464
0.39898681640625, -0.01171875, 0.328125, 0.0, 0.12334784120321274, 1.2990809679031372, 1.2455801963806152, 976, 1504, 1504, 1464
0.39385986328125, -0.0087890625, 0.326171875, 0.0, 0.16255833208560944, 1.3168532848358154, 1.2878061532974243, 976, 1504, 1504, 1464
0.39239501953125, -0.006591796875, 0.32080078125, 0.0, 0.13417622447013855, 1.235913634300232, 1.3314623832702637, 976, 1504, 1504, 1464
0.39678955078125, -0.006591796875, 0.328857421875, 0.0, 0.08966603875160217, 1.266739010810852, 1.4034576416015625, 976, 1504, 1504, 1464
0.39141845703125, -0.01025390625, 0.330078125, 0.0, 0.17288359999656677, 1.276073932647705, 1.443601369857788, 976, 1504, 1508, 1456
0.39019775390625, -0.00341796875, 0.320068359375, 0.0, 0.15258511900901794, 1.3427436351776123, 1.424939513206482, 976, 1512, 1508, 1456
0.39971923828125, -0.00439453125, 0.32470703125, 0.0, 0.17094039916992188, 1.3583179712295532, 1.4259562492370605, 976, 1512, 1508, 1456
0.39068603515625, -0.0078125, 0.322998046875, 0.0, 0.15141920745372772, 1.3432351350784302, 1.4387798309326172, 976, 1512, 1508, 1456
0.39068603515625, -0.006591796875, 0.3359375, 0.0, 0.09390496462583542, 1.3769335746765137, 1.4189932346343994, 976, 1512, 1504, 1464
0.39239501953125, -0.006103515625, 0.33740234375, 0.0, 0.08382389694452286, 1.3208166360855103, 1.3888005018234253, 976, 1508, 1504, 1464
0.39923095703125, -0.00634765625, 0.3310546875, 0.0, 0.0747218206524849, 1.268825888633728, 1.3828986883163452, 976, 1508, 1504, 1464
0.39337158203125, -0.008056640625, 0.334716796875, 0.0, 0.07536745071411133, 1.2132039070129395, 1.4098918437957764, 976, 1508, 1504, 1464
0.39947509765625, -0.013671875, 0.32373046875, 0.0, 0.12766321003437042, 1.158456802368164, 1.3650190830230713, 976, 1504, 1508, 1460
0.39556884765625, -0.002685546875, 0.3271484375, 0.0, 0.09491853415966034, 1.201944351196289, 1.3228281736373901, 976, 1504, 1508, 1460
0.39898681640625, -0.005615234375, 0.32666015625, 0.0, 0.03252364322543144, 1.2066627740859985, 1.30362069606781, 976, 1504, 1508, 1460
0.39312744140625, -0.00634765625, 0.3310546875, 0.0, -0.017127037048339844, 1.188119888305664, 1.295149564743042, 976, 1504, 1504, 1460
0.40045166015625, -0.00830078125, 0.3291015625, 0.0, 0.07827339321374893, 1.2258491516113281, 1.3175477981567383, 976, 1508, 1504, 1460
0.39996337890625, -0.00830078125, 0.330322265625, 0.0, 0.13246022164821625, 1.2301660776138306, 1.3767881393432617, 976, 1508, 1504, 1460
0.39532470703125, -0.009765625, 0.322509765625, 0.0, 0.1466517150402069, 1.2358096837997437, 1.3879050016403198, 976, 1508, 1504, 1460
0.39556884765625, -0.005126953125, 0.327880859375, 0.0, 0.14295287430286407, 1.272783637046814, 1.4373232126235962, 980, 1508, 1504, 1460
0.39093017578125, -0.006103515625, 0.331787109375, 0.0, 0.17737478017807007, 1.2827541828155518, 1.418119192123413, 980, 1504, 1504, 1460
0.39996337890625, -0.0078125, 0.3330078125, 0.0, 0.12474548071622849, 1.2398815155029297, 1.4035433530807495, 980, 1504, 1504, 1460
0.40167236328125, -0.006591796875, 0.328857421875, 0.0, 0.0809541568160057, 1.3271352052688599, 1.3551032543182373, 980, 1504, 1504, 1460
0.38531494140625, -0.00927734375, 0.322998046875, 0.0, 0.07910684496164322, 1.3062047958374023, 1.3474130630493164, 980, 1504, 1504, 1448
0.39727783203125, -0.0068359375, 0.328857421875, 0.0, 0.11463969200849533, 1.263112187385559, 1.2878371477127075, 980, 1504, 1504, 1448
0.39703369140625, -0.00537109375, 0.328369140625, 0.0, 0.087104432284832, 1.2403100728988647, 1.3406412601470947, 980, 1504, 1504, 1448
0.39849853515625, -0.00390625, 0.330810546875, 0.0, 0.04310235753655434, 1.1869341135025024, 1.323468804359436, 980, 1504, 1504, 1464
0.38946533203125, -0.006103515625, 0.3359375, 0.0, 0.007540804799646139, 1.1946032047271729, 1.3467531204223633, 980, 1500, 1504, 1464
0.39288330078125, -0.007568359375, 0.330810546875, 0.0, 0.0045244828797876835, 1.1747771501541138, 1.3424030542373657, 980, 1500, 1504, 1464
0.40240478515625, -0.00146484375, 0.325927734375, 0.0, 0.03324903920292854, 1.1231869459152222, 1.3275792598724365, 980, 1500, 1504, 1464
0.39190673828125, -0.005859375, 0.32568359375, 0.0, 0.08712499588727951, 1.1380343437194824, 1.337005615234375, 976, 1500, 1504, 1464
0.39385986328125, -0.006591796875, 0.330078125, 0.0, 0.012580343522131443, 1.1622099876403809, 1.4495315551757812, 976, 1504, 1504, 1464
0.39312744140625, -0.0166015625, 0.328369140625, 0.0, 0.025868818163871765, 1.1675549745559692, 1.397963285446167, 976, 1504, 1504, 1464
0.39654541015625, -0.008056640625, 0.32373046875, 0.0, 0.030788464471697807, 1.1860291957855225, 1.4128239154815674, 976, 1504, 1504, 1464
0.39190673828125, -0.00341796875, 0.320068359375, 0.0, 0.05816773697733879, 1.2765029668807983, 1.400366187095642, 976, 1504, 1504, 1464
0.39971923828125, -0.009765625, 0.329345703125, 0.0, 0.1020762175321579, 1.294146180152893, 1.4356396198272705, 976, 1504, 1504, 1464
0.39849853515625, -0.00927734375, 0.337646484375, 0.0, 0.18338313698768616, 1.2711442708969116, 1.3804677724838257, 976, 1504, 1504, 1464
0.39923095703125, -0.01025390625, 0.326416015625, 0.0, 0.21384668350219727, 1.3214651346206665, 1.3901127576828003, 976, 1504, 1504, 1460
0.39752197265625, -0.01220703125, 0.32763671875, 0.0, 0.27181947231292725, 1.348604440689087, 1.325670838356018, 972, 1504, 1512, 1460
0.39752197265625, -0.010009765625, 0.3291015625, 0.0, 0.21194666624069214, 1.352674126625061, 1.3663949966430664, 972, 1504, 1512, 1460
0.38995361328125, -0.004638671875, 0.32861328125, 0.0, 0.2096107453107834, 1.3642762899398804, 1.3664019107818604, 972, 1504, 1512, 1460
0.39923095703125, 0.000732421875, 0.327880859375, 0.0, 0.1898885816335678, 1.294901728630066, 1.3694595098495483, 976, 1504, 1504, 1460
0.39483642578125, -0.004638671875, 0.333740234375, 0.0, 0.1780553013086319, 1.2715976238250732, 1.3377063274383545, 976, 1504, 1504, 1460
0.38897705078125, -0.004150390625, 0.334716796875, 0.0, 0.15263471007347107, 1.245401382446289, 1.330868124961853, 976, 1504, 1504, 1460
0.39044189453125, -0.003662109375, 0.326904296875, 0.0, 0.1312754899263382, 1.241897463798523, 1.3634063005447388, 976, 1504, 1504, 1460
0.39898681640625, -0.004150390625, 0.329345703125, 0.0, 0.1489942967891693, 1.2397949695587158, 1.4043034315109253, 976, 1508, 1504, 1464
0.39312744140625, -0.005615234375, 0.3212890625, 0.0, 0.11382406204938889, 1.195785403251648, 1.4166278839111328, 976, 1508, 1504, 1464
0.39654541015625, -0.010009765625, 0.3330078125, 0.0, 0.022492919117212296, 1.181593418121338, 1.4118088483810425, 976, 1508, 1504, 1464
0.39459228515625, -0.014892578125, 0.31201171875, 0.0, 0.040976669639348984, 1.1608644723892212, 1.4333449602127075, 976, 1508, 1504, 1460
0.40045166015625, -0.014404296875, 0.324951171875, 0.0, 0.03985317423939705, 1.218656063079834, 1.4004650115966797, 980, 1504, 1504, 1460
0.39239501953125, -0.00830078125, 0.32421875, 0.0, 0.005591296125203371, 1.225850224494934, 1.417378306388855, 980, 1504, 1504, 1460
0.38995361328125, -0.010498046875, 0.322265625, 0.0, 0.0888509601354599, 1.2515406608581543, 1.421419382095337, 980, 1504, 1504, 1460
0.39312744140625, -0.00537109375, 0.343017578125, 0.0, 0.1357533186674118, 1.2730618715286255, 1.3963631391525269, 980, 1504, 1516, 1464
0.39581298828125, -0.008056640625, 0.325439453125, 0.0, 0.18526878952980042, 1.2676539421081543, 1.363008737564087, 968, 1508, 1516, 1464
0.39874267578125, -0.01025390625, 0.31982421875, 0.0, 0.13558876514434814, 1.243035078048706, 1.388797640800476, 968, 1508, 1516, 1464
0.39654541015625, -0.0087890625, 0.32861328125, 0.0, 0.1912769228219986, 1.2282638549804688, 1.3432023525238037, 968, 1508, 1516, 1464
0.39654541015625, -0.008056640625, 0.329833984375, 0.0, 0.14224708080291748, 1.1430652141571045, 1.3280588388442993, 980, 1508, 1504, 1464
0.39385986328125, -0.00634765625, 0.325439453125, 0.0, 0.20443221926689148, 1.1866024732589722, 1.3464536666870117, 980, 1504, 1504, 1464
0.39459228515625, -0.006103515625, 0.32275390625, 0.0, 0.2386898547410965, 1.237152338027954, 1.3910783529281616, 980, 1504, 1504, 1464
0.39141845703125, -0.005859375, 0.32470703125, 0.0, 0.20733608305454254, 1.2674823999404907, 1.405639410018921, 980, 1504, 1504, 1460
0.39801025390625, -0.004150390625, 0.32470703125, 0.0, 0.19768409430980682, 1.1757566928863525, 1.3807883262634277, 980, 1504, 1504, 1460
0.39581298828125, -0.009765625, 0.328125, 0.0, 0.23158755898475647, 1.1756830215454102, 1.3689310550689697, 980, 1504, 1504, 1460
0.39849853515625, -0.007568359375, 0.328857421875, 0.0, 0.15116629004478455, 1.190906047821045, 1.3312822580337524, 980, 1504, 1504, 1460
0.40167236328125, -0.013427734375, 0.33447265625, 0.0, 0.1059669554233551, 1.1725590229034424, 1.3941892385482788, 980, 1504, 1492, 1472
0.39849853515625, -0.00732421875, 0.327880859375, 0.0, 0.054419875144958496, 1.2165125608444214, 1.4258266687393188, 980, 1504, 1492, 1472
0.39117431640625, -0.005126953125, 0.33349609375, 0.0, 0.05402597039937973, 1.3100602626800537, 1.3959541320800781, 980, 1504, 1492, 1472
0.39532470703125, -0.00634765625, 0.313232421875, 0.0, 0.020201843231916428, 1.3112270832061768, 1.4268854856491089, 980, 1504, 1492, 1472
0.39752197265625, -0.0068359375, 0.3193359375, 0.0, 0.01822797767817974, 1.2936066389083862, 1.4118566513061523, 976, 1504, 1504, 1464
0.40313720703125, -0.012451171875, 0.330810546875, 0.0, 0.010936787351965904, 1.2494465112686157, 1.3600910902023315, 976, 1504, 1504, 1464
0.39459228515625, -0.010009765625, 0.32275390625, 0.0, 0.030989551916718483, 1.2718054056167603, 1.2923905849456787, 976, 1504, 1504, 1464
0.39190673828125, -0.00830078125, 0.32861328125, 0.0, 0.06134182587265968, 1.2546863555908203, 1.291464924812317, 976, 1504, 1504, 1464
0.39776611328125, -0.005126953125, 0.33203125, 0.0, 0.05817914009094238, 1.311590552330017, 1.3183904886245728, 980, 1504, 1504, 1460
0.39605712890625, -0.005615234375, 0.328857421875, 0.0, 0.08986932039260864, 1.2235954999923706, 1.3223320245742798, 980, 1504, 1504, 1460
0.39556884765625, -0.008056640625, 0.326171875, 0.0, 0.10277655720710754, 1.2196534872055054, 1.4132466316223145, 980, 1504, 1504, 1460
0.39337158203125, -0.005615234375, 0.332275390625, 0.0, 0.18991021811962128, 1.2539294958114624, 1.379245638847351, 980, 1504, 1504, 1464
0.39605712890625, -0.00390625, 0.3232421875, 0.0, 0.23608355224132538, 1.1523576974868774, 1.4015933275222778, 976, 1504, 1504, 1464
0.39874267578125, -0.005615234375, 0.33056640625, 0.0, 0.17523792386054993, 1.1921780109405518, 1.4027880430221558, 976, 1504, 1504, 1464
0.39727783203125, -0.003662109375, 0.3291015625, 0.0, 0.1936923712491989, 1.1580549478530884, 1.3424360752105713, 976, 1504, 1504, 1464
0.39483642578125, -0.003662109375, 0.326416015625, 0.0, 0.19255129992961884, 1.1131535768508911, 1.364240288734436, 976, 1504, 1508, 1452
0.39605712890625, -0.007080078125, 0.333740234375, 0.0, 0.1888132244348526, 1.1167471408843994, 1.3223609924316406, 976, 1504, 1508, 1452
0.39410400390625, -0.0029296875, 0.33447265625, 0.0, 0.11023450642824173, 1.1372238397598267, 1.394943356513977, 976, 1504, 1508, 1452
0.39508056640625, -0.006103515625, 0.317138671875, 0.0, 0.11194223165512085, 1.1830977201461792, 1.352996587753296, 976, 1504, 1508, 1452
0.39703369140625, -0.008056640625, 0.327880859375, 0.0, 0.09159282594919205, 1.1770342588424683, 1.2942407131195068, 960, 1504, 1520, 1464
0.39581298828125, -0.003662109375, 0.331787109375, 0.0, 0.06411600112915039, 1.1703426837921143, 1.3444833755493164, 960, 1504, 1520, 1464
0.39434814453125, -0.009521484375, 0.325439453125, 0.0, 0.023202430456876755, 1.257930874824524, 1.3074533939361572, 960, 1504, 1520, 1464
0.39605712890625, -0.0107421875, 0.322021484375, 0.0, 0.013921458274126053, 1.2585753202438354, 1.346304178237915, 960, 1504, 1520, 1464
0.39678955078125, -0.011474609375, 0.3291015625, 0.0, -0.04660895839333534, 1.320030689239502, 1.3299199342727661, 976, 1504, 1504, 1464
0.39947509765625, -0.010986328125, 0.322998046875, 0.0, -0.009644765406847, 1.3416367769241333, 1.411692500114441, 976, 1504, 1504, 1464
0.39385986328125, -0.00927734375, 0.3232421875, 0.0, -0.045481517910957336, 1.3484935760498047, 1.4668629169464111, 976, 1504, 1504, 1464
0.38824462890625, -0.008056640625, 0.32958984375, 0.0, 0.04294009506702423, 1.3220733404159546, 1.3992018699645996, 980, 1504, 1504, 1464
0.39337158203125, -0.00732421875, 0.323974609375, 0.0, 0.10820680856704712, 1.33064866065979, 1.4563151597976685, 980, 1504, 1504, 1464
0.39825439453125, -0.0068359375, 0.32763671875, 0.0, 0.17484775185585022, 1.2716716527938843, 1.4295144081115723, 980, 1504, 1504, 1464
0.39898681640625, -0.010498046875, 0.3271484375, 0.0, 0.19956515729427338, 1.2271251678466797, 1.3767926692962646, 980, 1504, 1504, 1464
0.39068603515625, -0.002685546875, 0.334228515625, 0.0, 0.17164750397205353, 1.169862985610962, 1.403174877166748, 972, 1504, 1508, 1464
0.39898681640625, -0.006591796875, 0.3193359375, 0.0, 0.1671106517314911, 1.1629865169525146, 1.3640422821044922, 972, 1504, 1508, 1464
0.39996337890625, -0.0029296875, 0.32177734375, 0.0, 0.2132434993982315, 1.1100056171417236, 1.3252956867218018, 972, 1504, 1508, 1464
0.39581298828125, -0.008544921875, 0.333984375, 0.0, 0.18596138060092926, 1.1545530557632446, 1.323421835899353, 972, 1504, 1508, 1456
0.39532470703125, -0.00927734375, 0.321533203125, 0.0, 0.17875240743160248, 1.1507470607757568, 1.3009233474731445, 976, 1504, 1504, 1456
0.40411376953125, -0.00927734375, 0.325439453125, 0.0, 0.18358731269836426, 1.1362497806549072, 1.2874243259429932, 976, 1504, 1504, 1456
0.39337158203125, -0.010986328125, 0.329833984375, 0.0, 0.12236612290143967, 1.1702995300292969, 1.2976455688476562, 976, 1504, 1504, 1456
0.39703369140625, -0.010009765625, 0.3291015625, 0.0, 0.052045632153749466, 1.1693552732467651, 1.380114197731018, 976, 1504, 1504, 1464
0.39410400390625, -0.00732421875, 0.333740234375, 0.0, 0.022067075595259666, 1.2573384046554565, 1.4295952320098877, 976, 1504, 1504, 1464
0.39801025390625, -0.0029296875, 0.321533203125, 0.0, -0.029507843777537346, 1.2337924242019653, 1.395161747932434, 976, 1504, 1504, 1464
0.39703369140625, -0.008544921875, 0.3232421875, 0.0, -0.05129249393939972, 1.2349319458007812, 1.447784185409546, 976, 1504, 1504, 1464
0.39337158203125, -0.008056640625, 0.332275390625, 0.0, -0.012454885058104992, 1.3150049448013306, 1.3999682664871216, 980, 1504, 1504, 1460
0.39434814453125, -0.007568359375, 0.3251953125, 0.0, -0.007472930941730738, 1.305033564567566, 1.2857825756072998, 980, 1504, 1504, 1460
0.40093994140625, -0.01025390625, 0.337158203125, 0.0, 0.0077299815602600574, 1.3082109689712524, 1.28139328956604, 980, 1504, 1504, 1460
0.39752197265625, -0.008544921875, 0.331787109375, 0.0, -0.025896361097693443, 1.3284380435943604, 1.3062406778335571, 980, 1504, 1504, 1464
0.39459228515625, -0.005615234375, 0.325927734375, 0.0, 0.008889663964509964, 1.3253071308135986, 1.2936681509017944, 992, 1488, 1504, 1464
0.39483642578125, -0.007568359375, 0.331298828125, 0.0, 0.04197502136230469, 1.3051079511642456, 1.2769643068313599, 992, 1488, 1504, 1464
0.39923095703125, -0.008544921875, 0.3251953125, 0.0, 0.10152088850736618, 1.2197060585021973, 1.2699953317642212, 992, 1488, 1504, 1464
0.39630126953125, -0.002685546875, 0.333740234375, 0.0, 0.1708362102508545, 1.1654114723205566, 1.3543635606765747, 992, 1488, 1508, 1460
0.38873291015625, -0.005615234375, 0.323974609375, 0.0, 0.20326510071754456, 1.1603156328201294, 1.340862512588501, 976, 1508, 1508, 1460
0.39483642578125, -0.002685546875, 0.331298828125, 0.0, 0.23798958957195282, 1.17252516746521, 1.2900136709213257, 976, 1508, 1508, 1460
0.39630126953125, -0.00439453125, 0.32666015625, 0.0, 0.26187774538993835, 1.1584769487380981, 1.3999624252319336, 976, 1508, 1508, 1460
0.39532470703125, -0.003173828125, 0.326904296875, 0.0, 0.24872970581054688, 1.1011930704116821, 1.4170767068862915, 980, 1504, 1504, 1464
0.39410400390625, -0.010009765625, 0.32470703125, 0.0, 0.21946685016155243, 1.1065173149108887, 1.473146915435791, 980, 1504, 1504, 1464
0.39630126953125, -0.008544921875, 0.322509765625, 0.0, 0.17442820966243744, 1.1371928453445435, 1.4304529428482056, 980, 1504, 1504, 1464
0.39923095703125, -0.004638671875, 0.325439453125, 0.0, 0.10771036148071289, 1.1922394037246704, 1.4292641878128052, 980, 1504, 1504, 1464
0.39337158203125, -0.006591796875, 0.31982421875, 0.0, 0.0524124801158905, 1.1580917835235596, 1.3338944911956787, 976, 1504, 1504, 1464
0.39727783203125, -0.006103515625, 0.325439453125, 0.0, 0.003966573625802994, 1.2292062044143677, 1.31026029586792, 976, 1504, 1504, 1464
0.40167236328125, -0.01220703125, 0.32568359375, 0.0, -0.01594066619873047, 1.3176764249801636, 1.3113471269607544, 976, 1504, 1504, 1464
0.39703369140625, -0.009033203125, 0.33349609375, 0.0, -0.04620562121272087, 1.3432776927947998, 1.3486403226852417, 976, 1504, 1504, 1460
0.39263916015625, -0.012939453125, 0.335693359375, 0.0, -0.0857386440038681, 1.3616918325424194, 1.3649094104766846, 980, 1504, 1504, 1460
0.39239501953125, -0.0107421875, 0.32958984375, 0.0, -0.02701570652425289, 1.3971678018569946, 1.319709062576294, 980, 1504, 1504, 1460
0.39776611328125, -0.00537109375, 0.322509765625, 0.0, 0.020431797951459885, 1.3940259218215942, 1.317016363143921, 980, 1504, 1504, 1460
0.39849853515625, -0.0048828125, 0.331787109375, 0.0, 0.04584686458110809, 1.4287819862365723, 1.364255666732788, 976, 1504, 1504, 1464
0.38995361328125, -0.010009765625, 0.327392578125, 0.0, 0.1313249170780182, 1.3519257307052612, 1.3529045581817627, 976, 1504, 1504, 1464
0.39654541015625, -0.008544921875, 0.33056640625, 0.0, 0.15513083338737488, 1.3363463878631592, 1.4346435070037842, 976, 1504, 1504, 1464
0.39849853515625, -0.0068359375, 0.325927734375, 0.0, 0.18773499131202698, 1.2750903367996216, 1.4897937774658203, 976, 1504, 1504, 1452
0.39410400390625, 0.000244140625, 0.3251953125, 0.0, 0.2195112258195877, 1.1986420154571533, 1.5289907455444336, 976, 1504, 1508, 1452
0.39556884765625, -0.0078125, 0.333984375, 0.0, 0.22025635838508606, 1.1680402755737305, 1.44563889503479, 976, 1504, 1508, 1452
0.39361572265625, -0.005615234375, 0.3232421875, 0.0, 0.24818435311317444, 1.0947173833847046, 1.4108948707580566, 976, 1504, 1508, 1452
0.39923095703125, -0.00048828125, 0.32958984375, 0.0, 0.26799458265304565, 1.130112886428833, 1.3198193311691284, 976, 1504, 1504, 1460
0.39385986328125, -0.010498046875, 0.330810546875, 0.0, 0.27377384901046753, 1.0933349132537842, 1.4056320190429688, 976, 1516, 1504, 1460
0.39605712890625, -0.00390625, 0.3232421875, 0.0, 0.23143990337848663, 1.1018024682998657, 1.3441426753997803, 976, 1516, 1504, 1460
0.39532470703125, -0.008056640625, 0.32568359375, 0.0, 0.12054333835840225, 1.1771119832992554, 1.3530504703521729, 976, 1516, 1504, 1460
0.39532470703125, -0.00927734375, 0.326904296875, 0.0, 0.029577914625406265, 1.1581755876541138, 1.291219711303711, 976, 1516, 1504, 1464
0.39678955078125, -0.00634765625, 0.322021484375, 0.0, 0.005533008370548487, 1.192615270614624, 1.2510677576065063, 976, 1504, 1504, 1464
0.39263916015625, -0.010498046875, 0.326171875, 0.0, -0.005840500816702843, 1.2193859815597534, 1.349113941192627, 976, 1504, 1504, 1464
0.38067626953125, -0.008544921875, 0.33447265625, 0.0, 0.0606178417801857, 1.2415552139282227, 1.4934378862380981, 976, 1504, 1504, 1464
0.38092041015625, -0.0126953125, 0.3271484375, 0.0, 0.3814088702201843, 0.5250858664512634, 1.906749963760376, 980, 1504, 1504, 1460
0.39605712890625, -0.01123046875, 0.323974609375, 0.0, 0.9341888427734375, -0.11548282206058502, 2.2402331829071045, 980, 1504, 1504, 1460
0.38287353515625, -0.008544921875, 0.33544921875, 0.0, 1.1437194347381592, -0.5211980938911438, 2.1502468585968018, 980, 1504, 1504, 1460
0.38165283203125, -0.014892578125, 0.33349609375, 0.0, 1.4282163381576538, -1.1493600606918335, 1.8367130756378174, 980, 1504, 1508, 1460
0.38946533203125, -0.01123046875, 0.339111328125, 0.0, 1.7882275581359863, -1.8010663986206055, 1.5569896697998047, 976, 1504, 1508, 1460
0.40362548828125, -0.007080078125, 0.314453125, 0.0, 2.0897305011749268, -2.3630828857421875, 1.2059496641159058, 976, 1504, 1508, 1460
0.39947509765625, 0.00146484375, 0.318359375, 0.0, 1.8858994245529175, -2.48960542678833, 0.8945621848106384, 976, 1504, 1508, 1460
0.39678955078125, 0.001708984375, 0.32275390625, 0.0, 1.6353565454483032, -2.461702346801758, 0.7291037440299988, 980, 1504, 1504, 1460
0.41363525390625, -0.008056640625, 0.314453125, 0.0, 1.2071682214736938, -2.09076189994812, 0.5351722240447998, 980, 1504, 1504, 1460
0.40386962890625, 0.021240234375, 0.30859375, 0.0, 0.9166673421859741, -1.4834648370742798, 0.4462941884994507, 980, 1504, 1504, 1460
0.40460205078125, -0.025390625, 0.325927734375, 0.0, -0.32938891649246216, -0.6366438269615173, 0.25250935554504395, 980, 1504, 1504, 1460
0.41339111328125, -0.00439453125, 0.31982421875, 0.0, -0.23732802271842957, -0.14687183499336243, 0.31028425693511963, 976, 1500, 1508, 1460
0.39825439453125, -0.01953125, 0.316162109375, 0.0, -0.2523204982280731, 0.8950830101966858, 0.17701023817062378, 976, 1500, 1508, 1460
0.41412353515625, -0.0107421875, 0.3173828125, 0.0, -0.27658313512802124, 1.4622406959533691, 0.2527710497379303, 976, 1500, 1508, 1460
0.39678955078125, -0.01025390625, 0.3359375, 0.0, -0.4315987527370453, 2.339940071105957, 0.3226550221443176, 976, 1500, 1508, 1464
0.40069580078125, -0.01220703125, 0.321533203125, 0.0, -0.1643027663230896, 2.71083402633667, 0.44397467374801636, 972, 1512, 1504, 1464
0.38946533203125, -0.013427734375, 0.327392578125, 0.0, -0.049726702272892, 3.070775270462036, 0.690812349319458, 972, 1512, 1504, 1464
0.39337158203125, -0.007080078125, 0.3408203125, 0.0, 0.15031665563583374, 3.421091079711914, 1.0068538188934326, 972, 1512, 1504, 1464
0.39337158203125, -0.01318359375, 0.33447265625, 0.0, 0.6275945901870728, 3.0969293117523193, 1.2758680582046509, 988, 1512, 1504, 1460
0.38702392578125, -0.005859375, 0.33154296875, 0.0, 0.6452590823173523, 2.9176995754241943, 1.3578872680664062, 988, 1492, 1504, 1460
0.37774658203125, -0.00341796875, 0.328125, 0.0, 0.6558577418327332, 2.459017038345337, 1.3765645027160645, 988, 1492, 1504, 1460
0.38189697265625, -0.009521484375, 0.330810546875, 0.0, 0.4942780137062073, 1.866249918937683, 1.372503638267517, 988, 1492, 1504, 1460
0.39410400390625, 0.000244140625, 0.32666015625, 0.0, 0.4828263521194458, 1.0403608083724976, 1.3700671195983887, 972, 1504, 1512, 1460
0.39971923828125, 0.00634765625, 0.3212890625, 0.0, 0.27442866563796997, 0.7433004379272461, 1.4266204833984375, 972, 1504, 1512, 1460
0.40631103515625, -0.0009765625, 0.323486328125, 0.0, 0.12190910428762436, 0.455140620470047, 1.3811631202697754, 972, 1504, 1512, 1460
0.40582275390625, -0.00439453125, 0.325927734375, 0.0, -0.36349573731422424, 0.7707943320274353, 1.2164840698242188, 972, 1504, 1512, 1464
0.41485595703125, -0.005126953125, 0.312255859375, 0.0, -0.5020669102668762, 1.024308681488037, 1.0352340936660767, 976, 1508, 1504, 1464
0.41461181640625, 0.001953125, 0.317626953125, 0.0, -0.70734703540802, 1.94588303565979, 1.1219037771224976, 976, 1508, 1504, 1464
0.41656494140625, -0.001708984375, 0.313232421875, 0.0, -1.0473090410232544, 2.816384792327881, 1.6288676261901855, 976, 1508, 1504, 1464
0.42437744140625, 0.00439453125, 0.30322265625, 0.0, -1.3703701496124268, 4.306624889373779, 2.055183172225952, 976, 1508, 1504, 1464
0.42364501953125, 0.015380859375, 0.315673828125, 0.0, -1.8634436130523682, 6.193135738372803, 2.314026117324829, 976, 1508, 1504, 1464
0.40728759765625, -0.0029296875, 0.3330078125, 0.0, -2.7424936294555664, 7.8502326011657715, 2.3533012866973877, 976, 1508, 1504, 1464
0.41168212890625, -0.003662109375, 0.304443359375, 0.0, -3.346259593963623, 9.104033470153809, 2.535645008087158, 976, 1508, 1504, 1464
0.43023681640625, 0.01025390625, 0.3134765625, 0.0, -4.0138630867004395, 10.686847686767578, 2.672532081604004, 976, 1504, 1504, 1460
0.43048095703125, 0.012939453125, 0.322021484375, 0.0, -4.89076042175293, 12.720505714416504, 2.815732955932617, 976, 1504, 1504, 1460
0.42486572265625, 0.004638671875, 0.34228515625, 0.0, -6.024532794952393, 15.186503410339355, 2.9810428619384766, 976, 1504, 1504, 1460
0.43609619140625, 0.01708984375, 0.3134765625, 0.0, -7.156704902648926, 17.64930534362793, 3.400839328765869, 976, 1504, 1504, 1464
0.43951416015625, 0.012939453125, 0.31982421875, 0.0, -8.773412704467773, 20.76363182067871, 4.04050350189209, 976, 1504, 1504, 1464
0.43048095703125, 0.004638671875, 0.32373046875, 0.0, -10.351070404052734, 23.914669036865234, 4.992240905761719, 976, 1504, 1504, 1464
0.42730712890625, -0.03076171875, 0.28076171875, 0.0, -11.52667236328125, 26.703001022338867, 6.1770243644714355, 976, 1504, 1504, 1464
0.42120361328125, -0.0185546875, 0.291748046875, 0.0, -10.109896659851074, 29.047754287719727, 7.391711235046387, 976, 1504, 1504, 1460
0.41583251953125, -0.055908203125, 0.334716796875, 0.0, -9.888839721679688, 32.25307846069336, 8.416707038879395, 980, 1504, 1504, 1460
0.41339111328125, -0.02001953125, 0.3134765625, 0.0, -7.893609523773193, 34.1915397644043, 9.69735336303711, 980, 1504, 1504, 1460
0.42340087890625, -0.059814453125, 0.33935546875, 0.0, -6.4949445724487305, 37.05843734741211, 11.097801208496094, 980, 1504, 1504, 1460
0.42755126953125, -0.01953125, 0.31201171875, 0.0, -3.6099441051483154, 39.28849411010742, 13.05868148803711, 976, 1504, 1504, 1464
0.43072509765625, -0.031005859375, 0.3134765625, 0.0, -1.7629129886627197, 42.901344299316406, 15.099331855773926, 976, 1504, 1504, 1464
0.42828369140625, -0.012939453125, 0.306640625, 0.0, 0.1422521024942398, 46.21714782714844, 17.34967613220215, 976, 1504, 1504, 1464
0.43560791015625, -0.02001953125, 0.306884765625, 0.0, 1.4777177572250366, 50.060062408447266, 19.747211456298828, 976, 1504, 1504, 1472
0.41900634765625, -0.01220703125, 0.32470703125, 0.0, 2.5782337188720703, 54.307796478271484, 21.888023376464844, 980, 1504, 1492, 1472
0.40118408203125, -0.01220703125, 0.33642578125, 0.0, 2.945413589477539, 58.25796127319336, 23.514493942260742, 980, 1504, 1492, 1472
0.40069580078125, -0.015380859375, 0.337158203125, 0.0, 2.872591733932495, 61.837223052978516, 24.29495620727539, 980, 1504, 1492, 1472
0.41217041015625, -0.002685546875, 0.333740234375, 0.0, 2.64263916015625, 65.48401641845703, 23.98766326904297, 980, 1504, 1504, 1448
0.39727783203125, -0.01904296875, 0.32568359375, 0.0, 1.8329118490219116, 68.81407928466797, 22.655193328857422, 980, 1504, 1504, 1448
